zipcode,zipcodetype,city,state,locationtype,lat,long,location,decommisioned,taxreturnsfiled,estimatedpopulation,totalwages,suppliers
957,STANDARD,BAYAMON,PR,PRIMARY,18.28,-66.13,NA-US-PR-BAYAMON,f,,,,{161110}
954,PO BOX,TOA ALTA,PR,PRIMARY,18.39,-66.25,NA-US-PR-TOA ALTA,f,,,,{161106}
1001,STANDARD,AGAWAM,MA,PRIMARY,42.06,-72.61,NA-US-MA-AGAWAM,f,8596,14021,337735143,{}
1007,STANDARD,BELCHERTOWN,MA,PRIMARY,42.27,-72.4,NA-US-MA-BELCHERTOWN,f,7097,12895,342529324,{}
983,STANDARD,CAROLINA,PR,PRIMARY,18.4,-65.98,NA-US-PR-CAROLINA,f,,,,{}
1012,STANDARD,CHESTERFIELD,MA,PRIMARY,42.4,-72.85,NA-US-MA-CHESTERFIELD,f,374,639,13500566,{}
1038,STANDARD,HATFIELD,MA,PRIMARY,42.37,-72.6,NA-US-MA-HATFIELD,f,1300,2161,53672742,{}
1039,STANDARD,HAYDENVILLE,MA,PRIMARY,42.39,-72.7,NA-US-MA-HAYDENVILLE,f,747,1228,31238572,{}
1054,STANDARD,LEVERETT,MA,PRIMARY,42.45,-72.5,NA-US-MA-LEVERETT,f,968,1620,41254068,{}
1056,STANDARD,LUDLOW,MA,PRIMARY,42.16,-72.48,NA-US-MA-LUDLOW,f,10152,17529,404031435,{}
1080,STANDARD,THREE RIVERS,MA,PRIMARY,42.18,-72.37,NA-US-MA-THREE RIVERS,f,1168,1888,35086899,{}
1092,PO BOX,WEST WARREN,MA,PRIMARY,42.2,-72.2,NA-US-MA-WEST WARREN,f,611,1063,21706065,{}
1102,PO BOX,SPRINGFIELD,MA,PRIMARY,42.11,-72.53,NA-US-MA-SPRINGFIELD,f,,,,{}
1104,STANDARD,SPRINGFIELD,MA,PRIMARY,42.11,-72.53,NA-US-MA-SPRINGFIELD,f,9601,15795,257431945,{}
1106,STANDARD,LONGMEADOW,MA,PRIMARY,42.04,-72.57,NA-US-MA-LONGMEADOW,f,7734,14332,589918241,{}
1111,UNIQUE,SPRINGFIELD,MA,PRIMARY,42.11,-72.53,NA-US-MA-SPRINGFIELD,f,,,,{}
1138,PO BOX,SPRINGFIELD,MA,PRIMARY,42.11,-72.53,NA-US-MA-SPRINGFIELD,f,333,509,8160825,{}
1195,STANDARD,SPRINGFIELD,MA,PRIMARY,42.1,-72.58,NA-US-MA-SPRINGFIELD,t,,,,{}
1201,STANDARD,PITTSFIELD,MA,PRIMARY,42.45,-73.26,NA-US-MA-PITTSFIELD,f,22181,36002,745722739,{}
1224,STANDARD,BERKSHIRE,MA,PRIMARY,42.51,-73.19,NA-US-MA-BERKSHIRE,f,,,,{}
1227,PO BOX,DALTON,MA,PRIMARY,42.47,-73.16,NA-US-MA-DALTON,f,,,,{}
1252,PO BOX,NORTH EGREMONT,MA,PRIMARY,42.17,-73.44,NA-US-MA-NORTH EGREMONT,f,,,,{}
1255,STANDARD,SANDISFIELD,MA,PRIMARY,42.11,-73.13,NA-US-MA-SANDISFIELD,f,326,572,10291793,{}
1257,STANDARD,SHEFFIELD,MA,PRIMARY,42.1,-73.34,NA-US-MA-SHEFFIELD,f,1223,2018,38639493,{}
1259,STANDARD,SOUTHFIELD,MA,PRIMARY,42.07,-73.23,NA-US-MA-SOUTHFIELD,f,258,438,8079138,{}
1351,STANDARD,MONTAGUE,MA,PRIMARY,42.53,-72.53,NA-US-MA-MONTAGUE,f,1234,2016,46261486,{}
1367,STANDARD,ROWE,MA,PRIMARY,42.7,-72.9,NA-US-MA-ROWE,f,253,444,7918161,{}
1379,STANDARD,WENDELL,MA,PRIMARY,42.55,-72.4,NA-US-MA-WENDELL,f,399,625,12797150,{}
1430,STANDARD,ASHBURNHAM,MA,PRIMARY,42.63,-71.9,NA-US-MA-ASHBURNHAM,f,2914,5364,140443240,{}
1432,STANDARD,AYER,MA,PRIMARY,42.56,-71.58,NA-US-MA-AYER,f,3632,6017,166253356,{}
1434,STANDARD,DEVENS,MA,PRIMARY,42.53,-71.61,NA-US-MA-DEVENS,f,,,,{}
1451,STANDARD,HARVARD,MA,PRIMARY,42.5,-71.58,NA-US-MA-HARVARD,f,2463,4672,254974042,{}
1464,STANDARD,SHIRLEY,MA,PRIMARY,42.54,-71.65,NA-US-MA-SHIRLEY,f,2839,5028,141990255,{}
1468,STANDARD,TEMPLETON,MA,PRIMARY,42.55,-72.06,NA-US-MA-TEMPLETON,f,1943,3579,90728674,{}
1469,STANDARD,TOWNSEND,MA,PRIMARY,42.66,-71.7,NA-US-MA-TOWNSEND,f,3457,6266,175478972,{}
1510,STANDARD,CLINTON,MA,PRIMARY,42.41,-71.68,NA-US-MA-CLINTON,f,6969,11365,285300523,{}
1518,STANDARD,FISKDALE,MA,PRIMARY,42.12,-72.11,NA-US-MA-FISKDALE,f,1438,2639,82818972,{}
1519,STANDARD,GRAFTON,MA,PRIMARY,42.2,-71.68,NA-US-MA-GRAFTON,f,3318,6093,242085969,{}
1523,STANDARD,LANCASTER,MA,PRIMARY,42.45,-71.66,NA-US-MA-LANCASTER,f,2642,4777,151622063,{}
1526,PO BOX,MANCHAUG,MA,PRIMARY,42.12,-71.76,NA-US-MA-MANCHAUG,f,301,475,9841092,{}
1542,STANDARD,ROCHDALE,MA,PRIMARY,42.2,-71.9,NA-US-MA-ROCHDALE,f,1097,1907,48317521,{}
1561,PO BOX,SOUTH LANCASTER,MA,PRIMARY,42.43,-71.69,NA-US-MA-SOUTH LANCASTER,f,568,925,18926831,{}
1606,STANDARD,WORCESTER,MA,PRIMARY,42.26,-71.8,NA-US-MA-WORCESTER,f,10145,16439,425117263,{}
1607,STANDARD,WORCESTER,MA,PRIMARY,42.26,-71.8,NA-US-MA-WORCESTER,f,3827,6146,126734994,{}
1612,STANDARD,PAXTON,MA,PRIMARY,42.31,-71.93,NA-US-MA-PAXTON,f,2132,3934,118020759,{}
1752,STANDARD,MARLBOROUGH,MA,PRIMARY,42.34,-71.54,NA-US-MA-MARLBOROUGH,f,18751,31660,964186782,{}
1776,STANDARD,SUDBURY,MA,PRIMARY,42.36,-71.4,NA-US-MA-SUDBURY,f,8219,16252,1120565191,{}
1784,PO BOX,WOODVILLE,MA,PRIMARY,42.23,-71.55,NA-US-MA-WOODVILLE,f,,,,{}
1805,UNIQUE,BURLINGTON,MA,PRIMARY,42.5,-71.2,NA-US-MA-BURLINGTON,f,,,,{}
1813,UNIQUE,WOBURN,MA,PRIMARY,42.48,-71.15,NA-US-MA-WOBURN,f,,,,{}
965,STANDARD,GUAYNABO,PR,PRIMARY,18.38,-66.11,NA-US-PR-GUAYNABO,f,,,,{17023}
969,STANDARD,GUAYNABO,PR,PRIMARY,18.38,-66.11,NA-US-PR-GUAYNABO,f,,,,{17023}
1842,PO BOX,LAWRENCE,MA,PRIMARY,42.7,-71.16,NA-US-MA-LAWRENCE,f,737,1174,17996815,{}
1844,STANDARD,METHUEN,MA,PRIMARY,42.71,-71.18,NA-US-MA-METHUEN,f,23900,40836,1022105701,{}
1865,PO BOX,NUTTING LAKE,MA,PRIMARY,42.54,-71.25,NA-US-MA-NUTTING LAKE,f,,,,{}
1867,STANDARD,READING,MA,PRIMARY,42.53,-71.1,NA-US-MA-READING,f,11926,21499,808066167,{}
1888,PO BOX,WOBURN,MA,PRIMARY,42.48,-71.15,NA-US-MA-WOBURN,f,,,,{}
1899,UNIQUE,ANDOVER,MA,PRIMARY,42.65,-71.14,NA-US-MA-ANDOVER,f,,,,{}
1902,STANDARD,LYNN,MA,PRIMARY,42.47,-70.96,NA-US-MA-LYNN,f,18627,30268,565476884,{}
1906,STANDARD,SAUGUS,MA,PRIMARY,42.46,-71.01,NA-US-MA-SAUGUS,f,14041,23413,620455165,{}
1922,STANDARD,BYFIELD,MA,PRIMARY,42.75,-70.93,NA-US-MA-BYFIELD,f,1555,2848,99724975,{}
1930,STANDARD,GLOUCESTER,MA,PRIMARY,42.62,-70.66,NA-US-MA-GLOUCESTER,f,14448,23856,614688891,{}
1936,PO BOX,HAMILTON,MA,PRIMARY,42.61,-70.86,NA-US-MA-HAMILTON,f,,,,{}
1938,STANDARD,IPSWICH,MA,PRIMARY,42.67,-70.83,NA-US-MA-IPSWICH,f,6782,11683,408617757,{}
1961,PO BOX,PEABODY,MA,PRIMARY,42.53,-70.97,NA-US-MA-PEABODY,f,,,,{}
1965,PO BOX,PRIDES CROSSING,MA,PRIMARY,42.56,-70.86,NA-US-MA-PRIDES CROSSING,f,,,,{}
1969,STANDARD,ROWLEY,MA,PRIMARY,42.71,-70.87,NA-US-MA-ROWLEY,f,2926,5259,182610213,{}
2019,STANDARD,BELLINGHAM,MA,PRIMARY,42.09,-71.47,NA-US-MA-BELLINGHAM,f,8331,14707,436408085,{}
2027,PO BOX,DEDHAM,MA,PRIMARY,42.24,-71.17,NA-US-MA-DEDHAM,f,,,,{}
2031,STANDARD,EAST MANSFIELD,MA,PRIMARY,42.02,-71.17,NA-US-MA-EAST MANSFIELD,t,,,,{189978}
2038,STANDARD,FRANKLIN,MA,PRIMARY,42.08,-71.38,NA-US-MA-FRANKLIN,f,14611,27220,1034537207,{}
2050,STANDARD,MARSHFIELD,MA,PRIMARY,42.09,-70.7,NA-US-MA-MARSHFIELD,f,10824,19432,661846583,{}
2052,STANDARD,MEDFIELD,MA,PRIMARY,42.18,-71.3,NA-US-MA-MEDFIELD,f,5769,11150,619598333,{}
2053,STANDARD,MEDWAY,MA,PRIMARY,42.13,-71.4,NA-US-MA-MEDWAY,f,6104,11358,420760791,{}
2056,STANDARD,NORFOLK,MA,PRIMARY,42.11,-71.31,NA-US-MA-NORFOLK,f,4404,8410,358517844,{}
2059,PO BOX,NORTH MARSHFIELD,MA,PRIMARY,42.1,-70.71,NA-US-MA-NORTH MARSHFIELD,f,,,,{}
2066,STANDARD,SCITUATE,MA,PRIMARY,42.18,-70.73,NA-US-MA-SCITUATE,f,8348,14992,603071866,{}
2072,STANDARD,STOUGHTON,MA,PRIMARY,42.11,-71.1,NA-US-MA-STOUGHTON,f,13827,23389,636047711,{}
2109,STANDARD,BOSTON,MA,PRIMARY,42.35,-71.06,NA-US-MA-BOSTON,f,2966,4145,284385612,{}
2114,STANDARD,BOSTON,MA,PRIMARY,42.35,-71.06,NA-US-MA-BOSTON,f,6447,8116,551322326,{}
2116,STANDARD,BOSTON,MA,PRIMARY,42.35,-71.06,NA-US-MA-BOSTON,f,10214,13687,1351420353,{}
2117,PO BOX,BOSTON,MA,PRIMARY,42.35,-71.06,NA-US-MA-BOSTON,f,309,396,13001966,{}
2121,STANDARD,DORCHESTER,MA,PRIMARY,42.35,-71.06,NA-US-MA-DORCHESTER,f,10281,16415,265819434,{}
2125,STANDARD,DORCHESTER,MA,PRIMARY,42.35,-71.06,NA-US-MA-DORCHESTER,f,14981,22994,501492850,{}
2129,STANDARD,CHARLESTOWN,MA,PRIMARY,42.38,-71.06,NA-US-MA-CHARLESTOWN,f,9245,13311,726941650,{}
2131,STANDARD,ROSLINDALE,MA,PRIMARY,42.28,-71.13,NA-US-MA-ROSLINDALE,f,15098,23881,637197973,{}
2133,STANDARD,BOSTON,MA,PRIMARY,42.35,-71.06,NA-US-MA-BOSTON,f,,,,{}
2145,STANDARD,SOMERVILLE,MA,PRIMARY,42.39,-71.1,NA-US-MA-SOMERVILLE,f,12724,18704,460150998,{}
2149,STANDARD,EVERETT,MA,PRIMARY,42.4,-71.05,NA-US-MA-EVERETT,f,18742,30367,612913534,{}
2152,STANDARD,WINTHROP,MA,PRIMARY,42.37,-70.98,NA-US-MA-WINTHROP,f,8929,14181,397723233,{}
2163,STANDARD,BOSTON,MA,PRIMARY,42.35,-71.06,NA-US-MA-BOSTON,f,630,723,46464955,{}
2184,STANDARD,BRAINTREE,MA,PRIMARY,42.2,-71,NA-US-MA-BRAINTREE,f,17935,30406,941914537,{}
2185,PO BOX,BRAINTREE,MA,PRIMARY,42.2,-71,NA-US-MA-BRAINTREE,f,,,,{}
2187,PO BOX,MILTON VILLAGE,MA,PRIMARY,42.26,-71.08,NA-US-MA-MILTON VILLAGE,f,,,,{}
2203,STANDARD,BOSTON,MA,PRIMARY,42.35,-71.06,NA-US-MA-BOSTON,f,,,,{}
2238,PO BOX,CAMBRIDGE,MA,PRIMARY,42.37,-71.11,NA-US-MA-CAMBRIDGE,f,390,494,13719030,{}
2269,PO BOX,QUINCY,MA,PRIMARY,42.26,-71,NA-US-MA-QUINCY,f,306,426,10946967,{}
2283,STANDARD,BOSTON,MA,PRIMARY,42.35,-71.06,NA-US-MA-BOSTON,f,,,,{}
2298,PO BOX,BOSTON,MA,PRIMARY,42.34,-71.05,NA-US-MA-BOSTON,f,,,,{}
2301,STANDARD,BROCKTON,MA,PRIMARY,42.08,-71.02,NA-US-MA-BROCKTON,f,26639,44024,893244392,{}
2303,PO BOX,BROCKTON,MA,PRIMARY,42.08,-71.02,NA-US-MA-BROCKTON,f,700,1124,22756824,{}
2322,STANDARD,AVON,MA,PRIMARY,42.11,-71.03,NA-US-MA-AVON,f,2294,3831,98754584,{}
2340,UNIQUE,HANOVER,MA,PRIMARY,42.11,-70.81,NA-US-MA-HANOVER,f,,,,{}
2343,STANDARD,HOLBROOK,MA,PRIMARY,42.14,-71,NA-US-MA-HOLBROOK,f,5444,9085,241242817,{}
2357,UNIQUE,NORTH EASTON,MA,PRIMARY,42.05,-71.1,NA-US-MA-NORTH EASTON,f,,,,{}
2360,STANDARD,PLYMOUTH,MA,PRIMARY,41.95,-70.66,NA-US-MA-PLYMOUTH,f,25562,44333,1245239211,{}
2421,STANDARD,LEXINGTON,MA,PRIMARY,42.44,-71.23,NA-US-MA-LEXINGTON,f,8122,15237,791322042,{}
2446,STANDARD,BROOKLINE,MA,PRIMARY,42.32,-71.14,NA-US-MA-BROOKLINE,f,14601,21302,1038890274,{}
2461,STANDARD,NEWTON HIGHLANDS,MA,PRIMARY,42.31,-71.2,NA-US-MA-NEWTON HIGHLANDS,f,3521,6253,358055277,{}
2476,STANDARD,ARLINGTON,MA,PRIMARY,42.41,-71.16,NA-US-MA-ARLINGTON,f,8505,14383,585309228,{}
2481,STANDARD,WELLESLEY HILLS,MA,PRIMARY,42.31,-71.27,NA-US-MA-WELLESLEY HILLS,f,6960,13012,1359908283,{}
2482,STANDARD,WELLESLEY,MA,PRIMARY,42.3,-71.28,NA-US-MA-WELLESLEY,f,4782,8821,725439303,{}
2492,STANDARD,NEEDHAM,MA,PRIMARY,42.28,-71.24,NA-US-MA-NEEDHAM,f,9394,17587,1060369022,{}
96540,MILITARY,FPO,AP,PRIMARY,,,NA-US-,f,,,,{}
2538,STANDARD,EAST WAREHAM,MA,PRIMARY,41.77,-70.64,NA-US-MA-EAST WAREHAM,f,2221,3657,75660943,{}
2541,PO BOX,FALMOUTH,MA,PRIMARY,41.54,-70.6,NA-US-MA-FALMOUTH,f,392,571,12349354,{}
2576,STANDARD,WEST WAREHAM,MA,PRIMARY,41.78,-70.75,NA-US-MA-WEST WAREHAM,f,2051,3479,78599337,{}
2630,STANDARD,BARNSTABLE,MA,PRIMARY,41.7,-70.3,NA-US-MA-BARNSTABLE,f,1150,1895,50715110,{}
2639,STANDARD,DENNIS PORT,MA,PRIMARY,41.66,-70.13,NA-US-MA-DENNIS PORT,f,1787,2683,41536390,{}
2646,STANDARD,HARWICH PORT,MA,PRIMARY,41.66,-70.06,NA-US-MA-HARWICH PORT,f,1133,1742,28564508,{}
2650,STANDARD,NORTH CHATHAM,MA,PRIMARY,41.7,-69.95,NA-US-MA-NORTH CHATHAM,f,558,861,16776743,{}
2655,STANDARD,OSTERVILLE,MA,PRIMARY,41.62,-70.38,NA-US-MA-OSTERVILLE,f,1995,3222,85206486,{}
2657,STANDARD,PROVINCETOWN,MA,PRIMARY,42.06,-70.2,NA-US-MA-PROVINCETOWN,f,2474,3084,60762345,{}
2662,PO BOX,SOUTH ORLEANS,MA,PRIMARY,41.75,-69.99,NA-US-MA-SOUTH ORLEANS,f,518,840,17204775,{}
2663,PO BOX,SOUTH WELLFLEET,MA,PRIMARY,41.89,-69.98,NA-US-MA-SOUTH WELLFLEET,f,344,539,6973313,{}
2702,STANDARD,ASSONET,MA,PRIMARY,41.78,-71.06,NA-US-MA-ASSONET,f,2128,3833,113115570,{}
2703,STANDARD,ATTLEBORO,MA,PRIMARY,41.93,-71.29,NA-US-MA-ATTLEBORO,f,21067,36164,965326587,{}
2715,STANDARD,DIGHTON,MA,PRIMARY,41.81,-71.11,NA-US-MA-DIGHTON,f,1428,2622,68263120,{}
2722,PO BOX,FALL RIVER,MA,PRIMARY,41.71,-71.1,NA-US-MA-FALL RIVER,f,369,551,10884551,{}
2724,STANDARD,FALL RIVER,MA,PRIMARY,41.71,-71.1,NA-US-MA-FALL RIVER,f,7326,11903,204732137,{}
2726,STANDARD,SOMERSET,MA,PRIMARY,41.73,-71.15,NA-US-MA-SOMERSET,f,7873,13724,330142031,{}
2743,STANDARD,ACUSHNET,MA,PRIMARY,41.68,-70.9,NA-US-MA-ACUSHNET,f,5198,9079,212325801,{}
2745,STANDARD,NEW BEDFORD,MA,PRIMARY,41.66,-70.93,NA-US-MA-NEW BEDFORD,f,11743,19536,408341762,{}
2763,STANDARD,ATTLEBORO FALLS,MA,PRIMARY,41.97,-71.3,NA-US-MA-ATTLEBORO FALLS,f,1021,1856,63259062,{}
2767,STANDARD,RAYNHAM,MA,PRIMARY,41.93,-71.04,NA-US-MA-RAYNHAM,f,6595,11607,343769637,{}
2780,STANDARD,TAUNTON,MA,PRIMARY,41.9,-71.09,NA-US-MA-TAUNTON,f,23744,39589,901642252,{}
2802,PO BOX,ALBION,RI,PRIMARY,41.95,-71.45,NA-US-RI-ALBION,f,417,631,17392840,{}
2808,STANDARD,BRADFORD,RI,PRIMARY,41.39,-71.75,NA-US-RI-BRADFORD,f,1153,2043,41610566,{}
2813,STANDARD,CHARLESTOWN,RI,PRIMARY,41.38,-71.65,NA-US-RI-CHARLESTOWN,f,3941,6822,157103992,{}
2828,STANDARD,GREENVILLE,RI,PRIMARY,41.87,-71.55,NA-US-RI-GREENVILLE,f,3832,6569,181078967,{}
2832,STANDARD,HOPE VALLEY,RI,PRIMARY,41.51,-71.72,NA-US-RI-HOPE VALLEY,f,2313,4094,105202640,{}
2838,STANDARD,MANVILLE,RI,PRIMARY,41.96,-71.47,NA-US-RI-MANVILLE,f,1670,2736,60901253,{}
2840,STANDARD,NEWPORT,RI,PRIMARY,41.47,-71.3,NA-US-RI-NEWPORT,f,11276,17022,411844710,{}
2842,STANDARD,MIDDLETOWN,RI,PRIMARY,41.51,-71.27,NA-US-RI-MIDDLETOWN,f,8265,13797,339426576,{}
2854,STANDARD,NORTH KINGSTOWN,RI,PRIMARY,41.59,-71.45,NA-US-RI-NORTH KINGSTOWN,t,,,,{}
2860,STANDARD,PAWTUCKET,RI,PRIMARY,41.87,-71.37,NA-US-RI-PAWTUCKET,f,20201,32700,565533563,{}
2872,PO BOX,PRUDENCE ISLAND,RI,PRIMARY,41.6,-71.31,NA-US-RI-PRUDENCE ISLAND,f,,,,{}
2877,STANDARD,SLOCUM,RI,PRIMARY,41.52,-71.54,NA-US-RI-SLOCUM,f,,,,{}
2878,STANDARD,TIVERTON,RI,PRIMARY,41.65,-71.2,NA-US-RI-TIVERTON,f,8068,13961,350358406,{}
2883,PO BOX,PEACE DALE,RI,PRIMARY,41.45,-71.5,NA-US-RI-PEACE DALE,f,,,,{}
2891,STANDARD,WESTERLY,RI,PRIMARY,41.37,-71.81,NA-US-RI-WESTERLY,f,11431,18883,444379911,{}
2892,STANDARD,WEST KINGSTON,RI,PRIMARY,41.5,-71.59,NA-US-RI-WEST KINGSTON,f,2520,4536,131729601,{}
2905,STANDARD,PROVIDENCE,RI,PRIMARY,41.82,-71.41,NA-US-RI-PROVIDENCE,f,11362,19006,340737989,{}
2919,STANDARD,JOHNSTON,RI,PRIMARY,41.81,-71.46,NA-US-RI-JOHNSTON,f,14300,23966,553682212,{}
3037,STANDARD,DEERFIELD,NH,PRIMARY,43.14,-71.21,NA-US-NH-DEERFIELD,f,2140,3869,104944716,{}
3044,STANDARD,FREMONT,NH,PRIMARY,42.99,-71.14,NA-US-NH-FREMONT,f,1998,3744,101363128,{}
3052,STANDARD,LITCHFIELD,NH,PRIMARY,42.83,-71.46,NA-US-NH-LITCHFIELD,f,3995,7558,239272517,{}
3053,STANDARD,LONDONDERRY,NH,PRIMARY,42.85,-71.36,NA-US-NH-LONDONDERRY,f,12108,22127,694316492,{}
3055,STANDARD,MILFORD,NH,PRIMARY,42.83,-71.66,NA-US-NH-MILFORD,f,7581,13156,341975353,{}
3060,STANDARD,NASHUA,NH,PRIMARY,42.74,-71.49,NA-US-NH-NASHUA,f,14079,22531,499741938,{}
3070,STANDARD,NEW BOSTON,NH,PRIMARY,42.96,-71.68,NA-US-NH-NEW BOSTON,f,2487,4693,151620326,{}
3073,PO BOX,NORTH SALEM,NH,PRIMARY,42.83,-71.22,NA-US-NH-NORTH SALEM,f,,,,{}
3087,STANDARD,WINDHAM,NH,PRIMARY,42.8,-71.3,NA-US-NH-WINDHAM,f,6593,12419,519205059,{}
3103,STANDARD,MANCHESTER,NH,PRIMARY,42.99,-71.45,NA-US-NH-MANCHESTER,f,17029,28024,567419938,{}
3104,STANDARD,MANCHESTER,NH,PRIMARY,42.99,-71.45,NA-US-NH-MANCHESTER,f,16752,26506,734393142,{}
3107,UNIQUE,MANCHESTER,NH,PRIMARY,42.99,-71.45,NA-US-NH-MANCHESTER,f,,,,{}
3109,STANDARD,MANCHESTER,NH,PRIMARY,42.99,-71.45,NA-US-NH-MANCHESTER,f,5239,9076,240364485,{}
3231,PO BOX,EAST ANDOVER,NH,PRIMARY,43.48,-71.76,NA-US-NH-EAST ANDOVER,f,,,,{}
3234,STANDARD,EPSOM,NH,PRIMARY,43.22,-71.33,NA-US-NH-EPSOM,f,2357,4174,96794392,{}
3244,STANDARD,HILLSBOROUGH,NH,PRIMARY,43.12,-71.92,NA-US-NH-HILLSBOROUGH,f,3974,6896,146922244,{}
3247,PO BOX,LACONIA,NH,PRIMARY,43.56,-71.48,NA-US-NH-LACONIA,f,914,1419,32835446,{}
3263,STANDARD,PITTSFIELD,NH,PRIMARY,43.3,-71.33,NA-US-NH-PITTSFIELD,f,1966,3366,66584992,{}
3259,STANDARD,NORTH SANDWICH,NH,PRIMARY,43.86,-71.38,NA-US-NH-NORTH SANDWICH,f,,,,"{197165,197137}"
3268,STANDARD,SALISBURY,NH,PRIMARY,43.38,-71.71,NA-US-NH-SALISBURY,f,631,1116,25260272,{}
3305,UNIQUE,CONCORD,NH,PRIMARY,43.23,-71.56,NA-US-NH-CONCORD,f,,,,{}
3307,STANDARD,LOUDON,NH,PRIMARY,43.28,-71.46,NA-US-NH-LOUDON,f,2611,4664,109214901,{}
3446,STANDARD,SWANZEY,NH,PRIMARY,42.86,-72.28,NA-US-NH-SWANZEY,f,2944,5037,110786553,{}
3447,STANDARD,FITZWILLIAM,NH,PRIMARY,42.78,-72.15,NA-US-NH-FITZWILLIAM,f,1232,2092,46274444,{}
3448,STANDARD,GILSUM,NH,PRIMARY,43.05,-72.26,NA-US-NH-GILSUM,f,413,701,15130666,{}
3451,STANDARD,HINSDALE,NH,PRIMARY,42.78,-72.48,NA-US-NH-HINSDALE,f,2066,3489,70959545,{}
3464,STANDARD,STODDARD,NH,PRIMARY,43.08,-72.1,NA-US-NH-STODDARD,f,494,877,18910348,{}
3467,STANDARD,WESTMORELAND,NH,PRIMARY,42.96,-72.45,NA-US-NH-WESTMORELAND,f,856,1539,38133333,{}
3468,PO BOX,WEST PETERBOROUGH,NH,PRIMARY,42.85,-71.96,NA-US-NH-WEST PETERBOROUGH,f,,,,{}
3469,PO BOX,WEST SWANZEY,NH,PRIMARY,42.87,-72.32,NA-US-NH-WEST SWANZEY,f,451,709,11900358,{}
3575,PO BOX,BRETTON WOODS,NH,PRIMARY,44.34,-71.55,NA-US-NH-BRETTON WOODS,f,,,,{}
3584,STANDARD,LANCASTER,NH,PRIMARY,44.48,-71.56,NA-US-NH-LANCASTER,f,1764,3051,55592021,{}
3585,STANDARD,LISBON,NH,PRIMARY,44.21,-71.9,NA-US-NH-LISBON,f,1336,2280,42632080,{}
3588,STANDARD,MILAN,NH,PRIMARY,44.57,-71.18,NA-US-NH-MILAN,f,886,1560,27208395,{}
3592,STANDARD,PITTSBURG,NH,PRIMARY,45.05,-71.39,NA-US-NH-PITTSBURG,f,584,1003,13051233,{}
9623,MILITARY,FPO,AE,PRIMARY,,,EU-IT-NAS SIGONELLA,f,,,,{}
3595,PO BOX,TWIN MOUNTAIN,NH,PRIMARY,44.3,-71.5,NA-US-NH-TWIN MOUNTAIN,f,358,587,10358332,{}
3601,STANDARD,ACWORTH,NH,PRIMARY,43.21,-72.29,NA-US-NH-ACWORTH,f,,,,{198695}
3603,STANDARD,CHARLESTOWN,NH,PRIMARY,43.23,-72.42,NA-US-NH-CHARLESTOWN,f,2659,4511,85720280,{}
3740,STANDARD,BATH,NH,PRIMARY,44.16,-71.96,NA-US-NH-BATH,f,514,868,14528223,{}
3741,STANDARD,CANAAN,NH,PRIMARY,43.64,-72.01,NA-US-NH-CANAAN,f,2056,3514,78885778,{}
3743,STANDARD,CLAREMONT,NH,PRIMARY,43.37,-72.33,NA-US-NH-CLAREMONT,f,6731,11223,220533024,{}
3745,STANDARD,CORNISH,NH,PRIMARY,43.48,-72.32,NA-US-NH-CORNISH,f,611,1083,25492397,{}
3748,STANDARD,ENFIELD,NH,PRIMARY,43.64,-72.14,NA-US-NH-ENFIELD,f,2460,4101,108392458,{}
3751,PO BOX,GEORGES MILLS,NH,PRIMARY,43.42,-72.07,NA-US-NH-GEORGES MILLS,f,310,491,12152939,{}
3752,STANDARD,GOSHEN,NH,PRIMARY,43.3,-72.14,NA-US-NH-GOSHEN,f,425,727,12653044,{}
3765,STANDARD,HAVERHILL,NH,PRIMARY,44.03,-72.06,NA-US-NH-HAVERHILL,f,,,,{}
3780,STANDARD,PIKE,NH,PRIMARY,44,-72,NA-US-NH-PIKE,f,,,,{}
3802,PO BOX,PORTSMOUTH,NH,PRIMARY,43.05,-70.78,NA-US-NH-PORTSMOUTH,f,740,977,32478435,{}
3817,STANDARD,CHOCORUA,NH,PRIMARY,43.89,-71.24,NA-US-NH-CHOCORUA,f,360,593,9094758,{}
3833,STANDARD,EXETER,NH,PRIMARY,42.97,-70.94,NA-US-NH-EXETER,f,10490,18286,571105228,{}
3836,STANDARD,FREEDOM,NH,PRIMARY,43.81,-71.03,NA-US-NH-FREEDOM,f,686,1205,19716447,{}
3838,STANDARD,GLEN,NH,PRIMARY,44.1,-71.17,NA-US-NH-GLEN,f,795,1241,25120763,{}
3840,STANDARD,GREENLAND,NH,PRIMARY,43.03,-70.83,NA-US-NH-GREENLAND,f,1995,3475,125697835,{}
3841,STANDARD,HAMPSTEAD,NH,PRIMARY,42.87,-71.18,NA-US-NH-HAMPSTEAD,f,3174,5727,177439677,{}
3845,STANDARD,INTERVALE,NH,PRIMARY,44.15,-71.06,NA-US-NH-INTERVALE,f,774,1226,24069071,{}
9704,MILITARY,APO,AE,PRIMARY,,,NA-GL-THULE AIR FORCE BASE,f,,,,{}
3850,PO BOX,MELVIN VILLAGE,NH,PRIMARY,43.69,-71.28,NA-US-NH-MELVIN VILLAGE,f,302,521,7973558,{}
3857,STANDARD,NEWMARKET,NH,PRIMARY,43.07,-70.94,NA-US-NH-NEWMARKET,f,4562,7523,204819403,{}
3861,STANDARD,LEE,NH,PRIMARY,43.1,-71.01,NA-US-NH-LEE,f,1770,3124,89225948,{}
3862,STANDARD,NORTH HAMPTON,NH,PRIMARY,42.97,-70.83,NA-US-NH-NORTH HAMPTON,f,2475,4254,162790691,{}
3882,STANDARD,EFFINGHAM,NH,PRIMARY,43.71,-71,NA-US-NH-EFFINGHAM,f,598,998,14698353,{}
3883,STANDARD,SOUTH TAMWORTH,NH,PRIMARY,43.83,-71.31,NA-US-NH-SOUTH TAMWORTH,f,,,,{}
3887,STANDARD,UNION,NH,PRIMARY,43.45,-71.03,NA-US-NH-UNION,f,1023,1818,35395726,{}
3896,PO BOX,WOLFEBORO FALLS,NH,PRIMARY,43.59,-71.24,NA-US-NH-WOLFEBORO FALLS,f,684,1141,20307273,{}
3902,STANDARD,CAPE NEDDICK,ME,PRIMARY,43.17,-70.61,NA-US-ME-CAPE NEDDICK,f,1216,2032,52127169,{}
3904,STANDARD,KITTERY,ME,PRIMARY,43.09,-70.73,NA-US-ME-KITTERY,f,3934,6326,139465378,{}
3907,STANDARD,OGUNQUIT,ME,PRIMARY,43.24,-70.59,NA-US-ME-OGUNQUIT,f,920,1331,26662318,{}
4001,STANDARD,ACTON,ME,PRIMARY,43.53,-70.91,NA-US-ME-ACTON,f,1090,1934,35436412,{}
4007,PO BOX,BIDDEFORD,ME,PRIMARY,43.46,-70.44,NA-US-ME-BIDDEFORD,f,,,,{}
4014,PO BOX,CAPE PORPOISE,ME,PRIMARY,43.37,-70.43,NA-US-ME-CAPE PORPOISE,f,,,,{}
4020,STANDARD,CORNISH,ME,PRIMARY,43.8,-70.8,NA-US-ME-CORNISH,f,691,1211,22479231,{}
4021,STANDARD,CUMBERLAND CENTER,ME,PRIMARY,43.8,-70.25,NA-US-ME-CUMBERLAND CENTER,f,3022,5630,181519979,{}
4024,STANDARD,EAST BALDWIN,ME,PRIMARY,43.88,-70.69,NA-US-ME-EAST BALDWIN,f,293,522,8523841,{}
4027,STANDARD,LEBANON,ME,PRIMARY,43.39,-70.85,NA-US-ME-LEBANON,f,2651,4853,96901262,{}
4034,UNIQUE,FREEPORT,ME,PRIMARY,43.85,-70.1,NA-US-ME-FREEPORT,f,,,,{}
4041,STANDARD,HIRAM,ME,PRIMARY,43.87,-70.8,NA-US-ME-HIRAM,f,599,1069,18244504,{}
4043,STANDARD,KENNEBUNK,ME,PRIMARY,43.38,-70.54,NA-US-ME-KENNEBUNK,f,5507,9435,227138385,{}
4050,STANDARD,LONG ISLAND,ME,PRIMARY,43.69,-70.15,NA-US-ME-LONG ISLAND,f,,,,{}
4054,PO BOX,MOODY,ME,PRIMARY,43.3,-70.59,NA-US-ME-MOODY,f,375,596,8866187,{}
4057,PO BOX,NORTH BRIDGTON,ME,PRIMARY,44.1,-70.7,NA-US-ME-NORTH BRIDGTON,f,,,,{}
4064,STANDARD,OLD ORCHARD BEACH,ME,PRIMARY,43.52,-70.38,NA-US-ME-OLD ORCHARD BEACH,f,4578,6985,146139767,{}
4069,STANDARD,POWNAL,ME,PRIMARY,43.89,-70.18,NA-US-ME-POWNAL,f,725,1289,30536221,{}
4077,PO BOX,SOUTH CASCO,ME,PRIMARY,43.87,-70.51,NA-US-ME-SOUTH CASCO,f,284,477,8516217,{}
4082,PO BOX,SOUTH WINDHAM,ME,PRIMARY,43.73,-70.42,NA-US-ME-SOUTH WINDHAM,f,,,,{}
4091,STANDARD,WEST BALDWIN,ME,PRIMARY,43.83,-70.77,NA-US-ME-WEST BALDWIN,f,406,746,12320111,{}
4093,STANDARD,BUXTON,ME,PRIMARY,43.66,-70.6,NA-US-ME-BUXTON,f,3816,6701,149373118,{}
4095,STANDARD,WEST NEWFIELD,ME,PRIMARY,43.64,-70.92,NA-US-ME-WEST NEWFIELD,f,534,967,16757134,{}
4102,STANDARD,PORTLAND,ME,PRIMARY,43.66,-70.25,NA-US-ME-PORTLAND,f,8593,12801,314418286,{}
4107,STANDARD,CAPE ELIZABETH,ME,PRIMARY,43.56,-70.2,NA-US-ME-CAPE ELIZABETH,f,4610,8393,318066071,{}
9626,MILITARY,FPO,AE,PRIMARY,,,EU-IT-CNE-C6F,f,,,,{}
4211,PO BOX,AUBURN,ME,PRIMARY,44.08,-70.24,NA-US-ME-AUBURN,f,312,514,11483729,{204787}
4212,PO BOX,AUBURN,ME,PRIMARY,44.08,-70.24,NA-US-ME-AUBURN,f,333,517,8938427,{}
4220,STANDARD,BUCKFIELD,ME,PRIMARY,44.28,-70.36,NA-US-ME-BUCKFIELD,f,1400,2457,43905680,{}
4223,PO BOX,DANVILLE,ME,PRIMARY,44.03,-70.27,NA-US-ME-DANVILLE,f,,,,{}
4226,STANDARD,EAST ANDOVER,ME,PRIMARY,44.6,-70.72,NA-US-ME-EAST ANDOVER,f,,,,{}
4236,STANDARD,GREENE,ME,PRIMARY,44.18,-70.14,NA-US-ME-GREENE,f,2038,3669,78392180,{}
4263,STANDARD,LEEDS,ME,PRIMARY,44.3,-70.12,NA-US-ME-LEEDS,f,1002,1835,34344835,{}
4267,PO BOX,NORTH WATERFORD,ME,PRIMARY,44.2,-70.72,NA-US-ME-NORTH WATERFORD,f,,,,{}
4275,STANDARD,ROXBURY,ME,PRIMARY,44.66,-70.59,NA-US-ME-ROXBURY,f,,,,{}
4288,PO BOX,WEST MINOT,ME,PRIMARY,44.17,-70.33,NA-US-ME-WEST MINOT,f,,,,{}
4291,PO BOX,WEST POLAND,ME,PRIMARY,44.05,-70.45,NA-US-ME-WEST POLAND,f,,,,{}
4336,UNIQUE,AUGUSTA,ME,PRIMARY,44.33,-69.72,NA-US-ME-AUGUSTA,f,,,,{}
4341,PO BOX,COOPERS MILLS,ME,PRIMARY,44.27,-69.49,NA-US-ME-COOPERS MILLS,f,,,,{205232}
4348,STANDARD,JEFFERSON,ME,PRIMARY,44.2,-69.45,NA-US-ME-JEFFERSON,f,1300,2279,38739780,{}
4350,STANDARD,LITCHFIELD,ME,PRIMARY,44.13,-69.96,NA-US-ME-LITCHFIELD,f,1677,2964,56698317,{}
4358,STANDARD,SOUTH CHINA,ME,PRIMARY,44.39,-69.58,NA-US-ME-SOUTH CHINA,f,1879,3382,66979049,{}
4410,STANDARD,BRADFORD,ME,PRIMARY,45.06,-68.93,NA-US-ME-BRADFORD,f,509,932,14678191,{205352}
4411,STANDARD,BRADLEY,ME,PRIMARY,44.92,-68.62,NA-US-ME-BRADLEY,f,720,1240,21945876,{}
4415,PO BOX,BROWNVILLE JUNCTION,ME,PRIMARY,45.35,-69.05,NA-US-ME-BROWNVILLE JUNCTION,f,,,,{}
4429,STANDARD,HOLDEN,ME,PRIMARY,44.75,-68.67,NA-US-ME-HOLDEN,f,2427,4302,104362764,{}
4431,PO BOX,EAST ORLAND,ME,PRIMARY,44.58,-68.66,NA-US-ME-EAST ORLAND,f,,,,{}
4448,STANDARD,HOWLAND,ME,PRIMARY,45.25,-68.66,NA-US-ME-HOWLAND,f,572,1044,16398930,{}
4450,STANDARD,KENDUSKEAG,ME,PRIMARY,44.91,-68.93,NA-US-ME-KENDUSKEAG,f,589,1042,19287058,{}
4459,STANDARD,MATTAWAMKEAG,ME,PRIMARY,45.51,-68.35,NA-US-ME-MATTAWAMKEAG,f,318,553,7638818,{}
4467,PO BOX,OLAMON,ME,PRIMARY,45.12,-68.61,NA-US-ME-OLAMON,t,,,,{}
4474,STANDARD,ORRINGTON,ME,PRIMARY,44.73,-68.82,NA-US-ME-ORRINGTON,f,1815,3305,70033981,{}
4489,PO BOX,STILLWATER,ME,PRIMARY,45.01,-68.72,NA-US-ME-STILLWATER,f,,,,{}
4492,STANDARD,WAITE,ME,PRIMARY,45.32,-67.69,NA-US-ME-WAITE,f,,,,{205910}
4544,STANDARD,EAST BOOTHBAY,ME,PRIMARY,43.82,-69.59,NA-US-ME-EAST BOOTHBAY,f,426,702,10978278,{}
4570,PO BOX,SQUIRREL ISLAND,ME,PRIMARY,43.8,-69.63,NA-US-ME-SQUIRREL ISLAND,f,,,,{}
4571,STANDARD,TREVETT,ME,PRIMARY,43.89,-69.67,NA-US-ME-TREVETT,f,,,,{}
4575,PO BOX,WEST BOOTHBAY HARBOR,ME,PRIMARY,43.85,-69.65,NA-US-ME-WEST BOOTHBAY HARBOR,f,,,,{}
4579,STANDARD,WOOLWICH,ME,PRIMARY,43.96,-69.78,NA-US-ME-WOOLWICH,f,1578,2830,59007952,{}
4605,STANDARD,ELLSWORTH,ME,PRIMARY,44.58,-68.49,NA-US-ME-ELLSWORTH,f,6376,10831,199517606,{}
4607,STANDARD,GOULDSBORO,ME,PRIMARY,44.47,-68.03,NA-US-ME-GOULDSBORO,f,542,964,12270111,{}
4609,STANDARD,BAR HARBOR,ME,PRIMARY,44.38,-68.21,NA-US-ME-BAR HARBOR,f,2415,3867,78456708,{}
4616,STANDARD,BROOKLIN,ME,PRIMARY,44.26,-68.56,NA-US-ME-BROOKLIN,f,433,717,9018283,{}
4627,STANDARD,DEER ISLE,ME,PRIMARY,44.22,-68.67,NA-US-ME-DEER ISLE,f,756,1267,13571599,{}
4634,STANDARD,FRANKLIN,ME,PRIMARY,44.58,-68.23,NA-US-ME-FRANKLIN,f,842,1427,22553966,{}
4637,PO BOX,GRAND LAKE STREAM,ME,PRIMARY,45.17,-67.77,NA-US-ME-GRAND LAKE STREAM,f,,,,{}
4654,STANDARD,MACHIAS,ME,PRIMARY,44.7,-67.47,NA-US-ME-MACHIAS,f,1418,2410,37285819,{}
4660,STANDARD,MOUNT DESERT,ME,PRIMARY,44.31,-68.36,NA-US-ME-MOUNT DESERT,f,801,1327,27313528,{}
4669,STANDARD,PROSPECT HARBOR,ME,PRIMARY,44.42,-68.03,NA-US-ME-PROSPECT HARBOR,f,,,,{}
4671,STANDARD,ROBBINSTON,ME,PRIMARY,45.06,-67.16,NA-US-ME-ROBBINSTON,f,,,,{}
4673,STANDARD,SARGENTVILLE,ME,PRIMARY,44.32,-68.7,NA-US-ME-SARGENTVILLE,f,,,,{}
4674,STANDARD,SEAL COVE,ME,PRIMARY,44.3,-68.41,NA-US-ME-SEAL COVE,f,,,,{}
4679,STANDARD,SOUTHWEST HARBOR,ME,PRIMARY,44.27,-68.33,NA-US-ME-SOUTHWEST HARBOR,f,1058,1735,29839234,{}
4680,STANDARD,STEUBEN,ME,PRIMARY,44.51,-67.96,NA-US-ME-STEUBEN,f,490,857,7679384,{}
4684,STANDARD,SURRY,ME,PRIMARY,44.49,-68.5,NA-US-ME-SURRY,f,736,1252,21803755,{}
4734,PO BOX,BLAINE,ME,PRIMARY,46.5,-67.86,NA-US-ME-BLAINE,f,296,553,7121251,{}
4739,STANDARD,EAGLE LAKE,ME,PRIMARY,47.04,-68.59,NA-US-ME-EAGLE LAKE,f,439,737,11054467,{}
4743,STANDARD,FORT KENT,ME,PRIMARY,47.26,-68.57,NA-US-ME-FORT KENT,f,2055,3621,60544316,{}
4744,PO BOX,FORT KENT MILLS,ME,PRIMARY,47.23,-68.58,NA-US-ME-FORT KENT MILLS,f,,,,{}
4745,STANDARD,FRENCHVILLE,ME,PRIMARY,47.28,-68.38,NA-US-ME-FRENCHVILLE,f,484,882,15529969,{}
4746,STANDARD,GRAND ISLE,ME,PRIMARY,47.3,-68.15,NA-US-ME-GRAND ISLE,f,,,,{}
4760,STANDARD,MONTICELLO,ME,PRIMARY,46.3,-67.84,NA-US-ME-MONTICELLO,f,344,624,8800022,{}
4761,PO BOX,NEW LIMERICK,ME,PRIMARY,46.1,-67.96,NA-US-ME-NEW LIMERICK,f,267,457,6695992,{}
4766,STANDARD,PERHAM,ME,PRIMARY,46.84,-68.19,NA-US-ME-PERHAM,f,,,,{}
4772,STANDARD,SAINT AGATHA,ME,PRIMARY,47.24,-68.31,NA-US-ME-SAINT AGATHA,f,366,639,9966612,{}
4781,STANDARD,WALLAGRASS,ME,PRIMARY,47.15,-68.57,NA-US-ME-WALLAGRASS,f,257,451,6867283,{}
4852,PO BOX,MONHEGAN,ME,PRIMARY,43.76,-69.32,NA-US-ME-MONHEGAN,f,,,,{}
4863,STANDARD,VINALHAVEN,ME,PRIMARY,44.04,-68.83,NA-US-ME-VINALHAVEN,f,597,1016,9190713,{}
4865,PO BOX,WEST ROCKPORT,ME,PRIMARY,44.19,-69.15,NA-US-ME-WEST ROCKPORT,f,,,,{}
4911,STANDARD,ANSON,ME,PRIMARY,44.79,-69.88,NA-US-ME-ANSON,f,875,1529,22383467,{}
4923,STANDARD,CAMBRIDGE,ME,PRIMARY,45.02,-69.47,NA-US-ME-CAMBRIDGE,f,,,,{}
4925,STANDARD,CARATUNK,ME,PRIMARY,45.23,-69.99,NA-US-ME-CARATUNK,f,,,,{}
4927,STANDARD,CLINTON,ME,PRIMARY,44.63,-69.5,NA-US-ME-CLINTON,f,1531,2755,46796039,{}
4937,STANDARD,FAIRFIELD,ME,PRIMARY,44.59,-69.6,NA-US-ME-FAIRFIELD,f,3020,5223,100363738,{}
4939,STANDARD,GARLAND,ME,PRIMARY,45.03,-69.16,NA-US-ME-GARLAND,f,475,847,11337371,{}
4942,STANDARD,HARMONY,ME,PRIMARY,44.97,-69.54,NA-US-ME-HARMONY,f,422,791,10008361,{}
4947,STANDARD,KINGFIELD,ME,PRIMARY,44.95,-70.15,NA-US-ME-KINGFIELD,f,861,1429,26656502,{}
4956,STANDARD,NEW VINEYARD,ME,PRIMARY,44.8,-70.12,NA-US-ME-NEW VINEYARD,f,310,546,8730231,{}
4962,STANDARD,NORTH VASSALBORO,ME,PRIMARY,44.48,-69.56,NA-US-ME-NORTH VASSALBORO,f,,,,{}
4973,STANDARD,SEARSMONT,ME,PRIMARY,44.36,-69.19,NA-US-ME-SEARSMONT,f,646,1125,19046627,{}
9186,MILITARY,APO,AE,PRIMARY,,,EU-DE-SPINELLI KASERNE (PFSB),f,,,,{}
4987,STANDARD,TROY,ME,PRIMARY,44.66,-69.24,NA-US-ME-TROY,f,401,735,11170557,{}
4992,PO BOX,WEST FARMINGTON,ME,PRIMARY,44.63,-70.16,NA-US-ME-WEST FARMINGTON,f,292,476,6431200,{}
5032,STANDARD,BETHEL,VT,PRIMARY,43.83,-72.63,NA-US-VT-BETHEL,f,1207,2051,36903103,{}
5035,STANDARD,BRIDGEWATER CORNERS,VT,PRIMARY,43.6,-72.68,NA-US-VT-BRIDGEWATER CORNERS,f,317,527,8766606,{}
5037,STANDARD,BROWNSVILLE,VT,PRIMARY,43.45,-72.49,NA-US-VT-BROWNSVILLE,f,419,717,15136885,{}
5045,STANDARD,FAIRLEE,VT,PRIMARY,43.91,-72.19,NA-US-VT-FAIRLEE,f,770,1270,23721148,{}
5055,STANDARD,NORWICH,VT,PRIMARY,43.72,-72.3,NA-US-VT-NORWICH,f,1918,3317,113788374,{}
5060,STANDARD,RANDOLPH,VT,PRIMARY,43.92,-72.67,NA-US-VT-RANDOLPH,f,2383,3991,76676536,{}
5061,STANDARD,RANDOLPH CENTER,VT,PRIMARY,43.93,-72.58,NA-US-VT-RANDOLPH CENTER,f,640,1100,21710421,{}
5070,STANDARD,SOUTH STRAFFORD,VT,PRIMARY,43.83,-72.37,NA-US-VT-SOUTH STRAFFORD,f,284,495,10326015,{}
5074,PO BOX,THETFORD,VT,PRIMARY,43.82,-72.23,NA-US-VT-THETFORD,f,,,,{}
5077,STANDARD,TUNBRIDGE,VT,PRIMARY,43.88,-72.5,NA-US-VT-TUNBRIDGE,f,548,914,16531433,{}
5083,STANDARD,WEST FAIRLEE,VT,PRIMARY,43.9,-72.27,NA-US-VT-WEST FAIRLEE,f,,,,{}
5089,STANDARD,WINDSOR,VT,PRIMARY,43.48,-72.42,NA-US-VT-WINDSOR,f,2134,3525,71543063,{}
5101,STANDARD,BELLOWS FALLS,VT,PRIMARY,43.13,-72.45,NA-US-VT-BELLOWS FALLS,f,2170,3543,59352797,{}
5141,STANDARD,CAMBRIDGEPORT,VT,PRIMARY,43.15,-72.56,NA-US-VT-CAMBRIDGEPORT,f,,,,{}
5144,PO BOX,CHESTER DEPOT,VT,PRIMARY,43.28,-72.63,NA-US-VT-CHESTER DEPOT,f,,,,{}
5146,STANDARD,GRAFTON,VT,PRIMARY,43.16,-72.61,NA-US-VT-GRAFTON,f,283,516,8770735,{}
5149,STANDARD,LUDLOW,VT,PRIMARY,43.39,-72.69,NA-US-VT-LUDLOW,f,1355,2103,36452539,{}
5151,STANDARD,PERKINSVILLE,VT,PRIMARY,43.36,-72.51,NA-US-VT-PERKINSVILLE,f,654,1126,22332334,{}
5260,STANDARD,NORTH POWNAL,VT,PRIMARY,42.81,-73.24,NA-US-VT-NORTH POWNAL,f,,,,{208290}
5262,STANDARD,SHAFTSBURY,VT,PRIMARY,42.98,-73.2,NA-US-VT-SHAFTSBURY,f,1294,2236,45557560,{}
5341,STANDARD,EAST DOVER,VT,PRIMARY,42.96,-72.78,NA-US-VT-EAST DOVER,f,,,,{}
5345,STANDARD,NEWFANE,VT,PRIMARY,42.98,-72.65,NA-US-VT-NEWFANE,f,836,1416,24951186,{}
5351,STANDARD,SOUTH NEWFANE,VT,PRIMARY,42.94,-72.7,NA-US-VT-SOUTH NEWFANE,f,,,,{}
5356,STANDARD,WEST DOVER,VT,PRIMARY,42.96,-72.91,NA-US-VT-WEST DOVER,f,687,1043,16848829,{}
5358,STANDARD,WEST HALIFAX,VT,PRIMARY,42.76,-72.72,NA-US-VT-WEST HALIFAX,f,,,,{}
5360,STANDARD,WEST WARDSBORO,VT,PRIMARY,43.02,-72.85,NA-US-VT-WEST WARDSBORO,f,,,,{}
5439,UNIQUE,COLCHESTER,VT,PRIMARY,44.53,-73.15,NA-US-VT-COLCHESTER,f,,,,{}
5443,STANDARD,BRISTOL,VT,PRIMARY,44.13,-73.08,NA-US-VT-BRISTOL,f,3220,5546,110661309,{208733}
5449,PO BOX,COLCHESTER,VT,PRIMARY,44.53,-73.15,NA-US-VT-COLCHESTER,f,,,,{}
5463,STANDARD,ISLE LA MOTTE,VT,PRIMARY,44.87,-73.33,NA-US-VT-ISLE LA MOTTE,f,263,452,7914593,{}
5464,STANDARD,JEFFERSONVILLE,VT,PRIMARY,44.64,-72.82,NA-US-VT-JEFFERSONVILLE,f,1420,2441,50129879,{208821}
5466,PO BOX,JONESVILLE,VT,PRIMARY,44.39,-72.99,NA-US-VT-JONESVILLE,f,,,,{}
5468,STANDARD,MILTON,VT,PRIMARY,44.63,-73.11,NA-US-VT-MILTON,f,6710,11914,277076898,{}
5471,STANDARD,MONTGOMERY CENTER,VT,PRIMARY,44.86,-72.59,NA-US-VT-MONTGOMERY CENTER,f,384,653,10062799,{}
5474,STANDARD,NORTH HERO,VT,PRIMARY,44.82,-73.28,NA-US-VT-NORTH HERO,f,439,757,18683268,{}
5490,PO BOX,UNDERHILL CENTER,VT,PRIMARY,44.52,-72.89,NA-US-VT-UNDERHILL CENTER,f,,,,{}
5491,STANDARD,VERGENNES,VT,PRIMARY,44.16,-73.25,NA-US-VT-VERGENNES,f,2944,5045,104231216,{}
5494,STANDARD,WESTFORD,VT,PRIMARY,44.62,-73.02,NA-US-VT-WESTFORD,f,870,1555,41720931,{}
5501,UNIQUE,ANDOVER,MA,PRIMARY,42.65,-71.14,NA-US-MA-ANDOVER,f,,,,{}
5604,UNIQUE,MONTPELIER,VT,PRIMARY,44.26,-72.57,NA-US-VT-MONTPELIER,f,,,,{}
5640,STANDARD,ADAMANT,VT,PRIMARY,44.35,-72.5,NA-US-VT-ADAMANT,f,,,,{}
5662,PO BOX,MOSCOW,VT,PRIMARY,44.44,-72.71,NA-US-VT-MOSCOW,f,,,,{}
5672,STANDARD,STOWE,VT,PRIMARY,44.46,-72.68,NA-US-VT-STOWE,f,2738,4344,110142836,{}
9735,MILITARY,APO,AE,PRIMARY,,,NA-CA-WINNIPEG,f,,,,{}
5674,STANDARD,WARREN,VT,PRIMARY,44.12,-72.85,NA-US-VT-WARREN,f,794,1263,25586023,{}
5730,STANDARD,BELMONT,VT,PRIMARY,43.42,-72.81,NA-US-VT-BELMONT,f,,,,{}
5735,STANDARD,CASTLETON,VT,PRIMARY,43.62,-73.18,NA-US-VT-CASTLETON,f,1389,2370,48219454,{}
5737,STANDARD,CHITTENDEN,VT,PRIMARY,43.72,-72.95,NA-US-VT-CHITTENDEN,f,381,665,14221492,{}
5743,STANDARD,FAIR HAVEN,VT,PRIMARY,43.59,-73.27,NA-US-VT-FAIR HAVEN,f,2065,3514,59817239,{}
5745,PO BOX,FOREST DALE,VT,PRIMARY,43.82,-73.05,NA-US-VT-FOREST DALE,f,,,,{}
5750,PO BOX,HYDEVILLE,VT,PRIMARY,43.6,-73.21,NA-US-VT-HYDEVILLE,f,,,,{}
5823,PO BOX,BEEBE PLAIN,VT,PRIMARY,45,-72.14,NA-US-VT-BEEBE PLAIN,f,,,,{}
5824,STANDARD,CONCORD,VT,PRIMARY,44.43,-71.88,NA-US-VT-CONCORD,f,527,938,15015601,{}
5826,STANDARD,CRAFTSBURY,VT,PRIMARY,44.63,-72.37,NA-US-VT-CRAFTSBURY,f,349,628,8857711,{}
5828,STANDARD,DANVILLE,VT,PRIMARY,44.42,-72.13,NA-US-VT-DANVILLE,f,952,1672,29470478,{}
5830,STANDARD,DERBY LINE,VT,PRIMARY,45,-72.1,NA-US-VT-DERBY LINE,f,767,1332,19941175,{}
5836,STANDARD,EAST HARDWICK,VT,PRIMARY,44.52,-72.3,NA-US-VT-EAST HARDWICK,f,486,880,13556320,{}
5837,STANDARD,EAST HAVEN,VT,PRIMARY,44.67,-71.9,NA-US-VT-EAST HAVEN,f,,,,{}
5842,STANDARD,GREENSBORO BEND,VT,PRIMARY,44.54,-72.21,NA-US-VT-GREENSBORO BEND,f,286,498,5854515,{}
5845,STANDARD,IRASBURG,VT,PRIMARY,44.81,-72.28,NA-US-VT-IRASBURG,f,581,1030,14120157,{}
5851,STANDARD,LYNDONVILLE,VT,PRIMARY,44.53,-72,NA-US-VT-LYNDONVILLE,f,2697,4536,77003149,{}
5853,STANDARD,MORGAN,VT,PRIMARY,44.89,-71.96,NA-US-VT-MORGAN,f,269,453,7058441,{}
5858,STANDARD,NORTH CONCORD,VT,PRIMARY,44.56,-71.77,NA-US-VT-NORTH CONCORD,f,,,,{}
5861,PO BOX,PASSUMPSIC,VT,PRIMARY,44.38,-72.03,NA-US-VT-PASSUMPSIC,f,,,,{}
5866,STANDARD,SHEFFIELD,VT,PRIMARY,44.6,-72.12,NA-US-VT-SHEFFIELD,f,323,573,8362085,{}
5873,STANDARD,WEST DANVILLE,VT,PRIMARY,44.46,-72.22,NA-US-VT-WEST DANVILLE,f,361,636,9755426,{}
6002,STANDARD,BLOOMFIELD,CT,PRIMARY,41.81,-72.73,NA-US-CT-BLOOMFIELD,f,11413,18034,516113780,{210221}
6006,UNIQUE,WINDSOR,CT,PRIMARY,41.85,-72.65,NA-US-CT-WINDSOR,f,,,,{}
6024,STANDARD,EAST CANAAN,CT,PRIMARY,42,-73.28,NA-US-CT-EAST CANAAN,f,287,491,8963060,{}
6025,PO BOX,EAST GLASTONBURY,CT,PRIMARY,41.7,-72.54,NA-US-CT-EAST GLASTONBURY,f,,,,{}
6026,STANDARD,EAST GRANBY,CT,PRIMARY,41.93,-72.71,NA-US-CT-EAST GRANBY,f,2642,4698,157403608,{}
6040,STANDARD,MANCHESTER,CT,PRIMARY,41.78,-72.51,NA-US-CT-MANCHESTER,f,18096,29298,762263349,{}
6057,STANDARD,NEW HARTFORD,CT,PRIMARY,41.87,-72.97,NA-US-CT-NEW HARTFORD,f,3419,6239,196979549,{}
6069,STANDARD,SHARON,CT,PRIMARY,41.87,-73.47,NA-US-CT-SHARON,f,1212,2013,54649291,{}
6071,STANDARD,SOMERS,CT,PRIMARY,41.98,-72.45,NA-US-CT-SOMERS,f,4539,8215,270781641,{210893}
6074,STANDARD,SOUTH WINDSOR,CT,PRIMARY,41.81,-72.61,NA-US-CT-SOUTH WINDSOR,f,13307,23622,788878271,{}
6081,STANDARD,TARIFFVILLE,CT,PRIMARY,41.9,-72.76,NA-US-CT-TARIFFVILLE,f,715,1163,32091424,{}
6083,PO BOX,ENFIELD,CT,PRIMARY,41.96,-72.56,NA-US-CT-ENFIELD,f,321,461,9232530,{}
6091,STANDARD,WEST HARTLAND,CT,PRIMARY,42,-72.97,NA-US-CT-WEST HARTLAND,f,,,,{}
6092,STANDARD,WEST SIMSBURY,CT,PRIMARY,41.87,-72.84,NA-US-CT-WEST SIMSBURY,f,2045,4014,240193043,{}
6093,STANDARD,WEST SUFFIELD,CT,PRIMARY,42,-72.72,NA-US-CT-WEST SUFFIELD,f,1757,3130,98172513,{}
6096,STANDARD,WINDSOR LOCKS,CT,PRIMARY,41.92,-72.65,NA-US-CT-WINDSOR LOCKS,f,6784,11081,279966091,{}
6103,STANDARD,HARTFORD,CT,PRIMARY,41.76,-72.68,NA-US-CT-HARTFORD,f,881,1087,51851563,{}
6109,STANDARD,WETHERSFIELD,CT,PRIMARY,41.7,-72.67,NA-US-CT-WETHERSFIELD,f,14144,23881,681976153,{}
6128,PO BOX,EAST HARTFORD,CT,PRIMARY,41.76,-72.61,NA-US-CT-EAST HARTFORD,f,,,,{}
6129,PO BOX,WETHERSFIELD,CT,PRIMARY,41.7,-72.67,NA-US-CT-WETHERSFIELD,f,,,,{}
6146,PO BOX,HARTFORD,CT,PRIMARY,41.76,-72.68,NA-US-CT-HARTFORD,f,,,,{}
6156,UNIQUE,HARTFORD,CT,PRIMARY,41.76,-72.68,NA-US-CT-HARTFORD,f,,,,{}
6167,UNIQUE,HARTFORD,CT,PRIMARY,41.76,-72.68,NA-US-CT-HARTFORD,f,,,,{}
6233,PO BOX,BALLOUVILLE,CT,PRIMARY,41.87,-71.86,NA-US-CT-BALLOUVILLE,f,,,,{212054}
6238,STANDARD,COVENTRY,CT,PRIMARY,41.78,-72.3,NA-US-CT-COVENTRY,f,6145,10876,324671882,{}
9745,MILITARY,APO,AE,PRIMARY,,,EU-DE-PAPA,f,,,,{}
6254,STANDARD,NORTH FRANKLIN,CT,PRIMARY,41.61,-72.14,NA-US-CT-NORTH FRANKLIN,f,963,1711,46714507,{}
6262,STANDARD,QUINEBAUG,CT,PRIMARY,42,-71.93,NA-US-CT-QUINEBAUG,f,352,595,11191479,{}
6264,STANDARD,SCOTLAND,CT,PRIMARY,41.7,-72.08,NA-US-CT-SCOTLAND,f,355,627,15818075,{}
6282,STANDARD,WOODSTOCK VALLEY,CT,PRIMARY,41.92,-72.1,NA-US-CT-WOODSTOCK VALLEY,f,540,1018,28473029,{}
6357,STANDARD,NIANTIC,CT,PRIMARY,41.32,-72.19,NA-US-CT-NIANTIC,f,5728,9545,260089264,{}
6380,STANDARD,TAFTVILLE,CT,PRIMARY,41.56,-72.05,NA-US-CT-TAFTVILLE,f,1319,2072,37022597,{}
6403,STANDARD,BEACON FALLS,CT,PRIMARY,41.44,-73.04,NA-US-CT-BEACON FALLS,f,2978,5256,151447385,{}
6408,UNIQUE,CHESHIRE,CT,PRIMARY,41.5,-72.9,NA-US-CT-CHESHIRE,f,,,,{}
6411,UNIQUE,CHESHIRE,CT,PRIMARY,41.5,-72.9,NA-US-CT-CHESHIRE,f,,,,{}
6441,STANDARD,HIGGANUM,CT,PRIMARY,41.49,-72.55,NA-US-CT-HIGGANUM,f,2738,4936,159919982,{}
6440,PO BOX,HAWLEYVILLE,CT,PRIMARY,41.43,-73.35,NA-US-CT-HAWLEYVILLE,f,,,,"{213197,213148}"
6442,STANDARD,IVORYTON,CT,PRIMARY,41.34,-72.43,NA-US-CT-IVORYTON,f,1375,2513,83527692,{}
6450,STANDARD,MERIDEN,CT,PRIMARY,41.53,-72.79,NA-US-CT-MERIDEN,f,17977,29435,718014481,{}
6459,UNIQUE,MIDDLETOWN,CT,PRIMARY,41.54,-72.65,NA-US-CT-MIDDLETOWN,f,,,,{}
6478,STANDARD,OXFORD,CT,PRIMARY,41.42,-73.11,NA-US-CT-OXFORD,f,6000,11216,366561842,{}
6482,STANDARD,SANDY HOOK,CT,PRIMARY,41.4,-73.24,NA-US-CT-SANDY HOOK,f,4928,9509,400510093,{}
6484,STANDARD,SHELTON,CT,PRIMARY,41.3,-73.13,NA-US-CT-SHELTON,f,20509,35618,1148354148,{}
6493,UNIQUE,WALLINGFORD,CT,PRIMARY,41.44,-72.81,NA-US-CT-WALLINGFORD,f,,,,{}
6501,PO BOX,NEW HAVEN,CT,PRIMARY,41.31,-72.92,NA-US-CT-NEW HAVEN,f,,,,{}
6514,STANDARD,HAMDEN,CT,PRIMARY,41.37,-72.9,NA-US-CT-HAMDEN,f,12608,20719,526196181,{}
6520,PO BOX,NEW HAVEN,CT,PRIMARY,41.31,-72.92,NA-US-CT-NEW HAVEN,f,622,663,9658588,{}
6525,STANDARD,WOODBRIDGE,CT,PRIMARY,41.34,-72.96,NA-US-CT-WOODBRIDGE,f,4766,8587,416297802,{}
6530,PO BOX,NEW HAVEN,CT,PRIMARY,41.31,-72.92,NA-US-CT-NEW HAVEN,f,,,,{}
6534,PO BOX,NEW HAVEN,CT,PRIMARY,41.31,-72.92,NA-US-CT-NEW HAVEN,f,,,,{}
6615,STANDARD,STRATFORD,CT,PRIMARY,41.2,-73.13,NA-US-CT-STRATFORD,f,9378,15405,380373506,{}
6650,STANDARD,BRIDGEPORT,CT,PRIMARY,41.18,-73.19,NA-US-CT-BRIDGEPORT,f,,,,{}
6722,PO BOX,WATERBURY,CT,PRIMARY,41.55,-73.03,NA-US-CT-WATERBURY,f,,,,{}
6724,PO BOX,WATERBURY,CT,PRIMARY,41.55,-73.03,NA-US-CT-WATERBURY,f,,,,{}
6726,PO BOX,WATERBURY,CT,PRIMARY,41.55,-73.03,NA-US-CT-WATERBURY,f,,,,{}
6754,STANDARD,CORNWALL BRIDGE,CT,PRIMARY,41.81,-73.37,NA-US-CT-CORNWALL BRIDGE,f,738,1348,37045332,{}
9813,MILITARY,DPO,AE,PRIMARY,,,NA-US-,f,,,,{}
6763,STANDARD,MORRIS,CT,PRIMARY,41.68,-73.17,NA-US-CT-MORRIS,f,1071,1862,47079884,{}
6781,PO BOX,PEQUABUCK,CT,PRIMARY,41.67,-73,NA-US-CT-PEQUABUCK,f,,,,{}
6811,STANDARD,DANBURY,CT,PRIMARY,41.4,-73.47,NA-US-CT-DANBURY,f,14312,24956,817156060,{}
7962,PO BOX,MORRISTOWN,NJ,PRIMARY,40.79,-74.47,NA-US-NJ-MORRISTOWN,f,,,,"{214920,214876}"
6828,UNIQUE,FAIRFIELD,CT,PRIMARY,41.13,-73.28,NA-US-CT-FAIRFIELD,f,,,,{}
6832,UNIQUE,GREENWICH,CT,PRIMARY,41.02,-73.62,NA-US-CT-GREENWICH,t,,,,{}
6836,PO BOX,GREENWICH,CT,PRIMARY,41.06,-73.63,NA-US-CT-GREENWICH,f,,,,{}
6842,UNIQUE,NEW CANAAN,CT,PRIMARY,41.14,-73.49,NA-US-CT-NEW CANAAN,t,,,,{}
6851,STANDARD,NORWALK,CT,PRIMARY,41.09,-73.42,NA-US-CT-NORWALK,f,13505,22550,816505687,{}
6853,STANDARD,NORWALK,CT,PRIMARY,41.09,-73.42,NA-US-CT-NORWALK,f,1768,3224,329431113,{}
6856,PO BOX,NORWALK,CT,PRIMARY,41.09,-73.42,NA-US-CT-NORWALK,f,259,391,11204954,{}
6857,UNIQUE,NORWALK,CT,PRIMARY,41.09,-73.42,NA-US-CT-NORWALK,f,,,,{}
6875,PO BOX,REDDING CENTER,CT,PRIMARY,41.3,-73.38,NA-US-CT-REDDING CENTER,f,,,,{}
6880,STANDARD,WESTPORT,CT,PRIMARY,41.12,-73.34,NA-US-CT-WESTPORT,f,12976,23735,279474889,{}
6901,STANDARD,STAMFORD,CT,PRIMARY,41.09,-73.55,NA-US-CT-STAMFORD,f,3775,5368,274966677,{}
6902,STANDARD,STAMFORD,CT,PRIMARY,41.09,-73.55,NA-US-CT-STAMFORD,f,29001,47130,1753889885,{}
6904,PO BOX,STAMFORD,CT,PRIMARY,41.09,-73.55,NA-US-CT-STAMFORD,f,449,743,15670221,{}
6921,UNIQUE,STAMFORD,CT,PRIMARY,41.09,-73.55,NA-US-CT-STAMFORD,f,,,,{}
7003,STANDARD,BLOOMFIELD,NJ,PRIMARY,40.81,-74.18,NA-US-NJ-BLOOMFIELD,f,24115,40014,1127181370,{}
7004,STANDARD,FAIRFIELD,NJ,PRIMARY,40.88,-74.3,NA-US-NJ-FAIRFIELD,f,3936,7094,244050912,{}
7007,PO BOX,CALDWELL,NJ,PRIMARY,40.83,-74.27,NA-US-NJ-CALDWELL,f,,,,{}
7018,STANDARD,EAST ORANGE,NJ,PRIMARY,40.76,-74.21,NA-US-NJ-EAST ORANGE,f,11991,19385,345462342,{}
7023,STANDARD,FANWOOD,NJ,PRIMARY,40.64,-74.38,NA-US-NJ-FANWOOD,f,3467,6663,268558594,{}
7029,STANDARD,HARRISON,NJ,PRIMARY,40.74,-74.15,NA-US-NJ-HARRISON,f,8197,13420,279950946,{}
7030,STANDARD,HOBOKEN,NJ,PRIMARY,40.74,-74.02,NA-US-NJ-HOBOKEN,f,27148,37267,,{}
7032,STANDARD,KEARNY,NJ,PRIMARY,40.75,-74.11,NA-US-NJ-KEARNY,f,18288,31241,689058725,{}
7039,STANDARD,LIVINGSTON,NJ,PRIMARY,40.78,-74.32,NA-US-NJ-LIVINGSTON,f,14374,27160,1480685726,{}
7061,PO BOX,PLAINFIELD,NJ,PRIMARY,40.63,-74.4,NA-US-NJ-PLAINFIELD,f,673,1121,17778656,{}
7062,STANDARD,PLAINFIELD,NJ,PRIMARY,40.63,-74.4,NA-US-NJ-PLAINFIELD,f,6431,10678,254048999,{}
7064,STANDARD,PORT READING,NJ,PRIMARY,40.56,-74.24,NA-US-NJ-PORT READING,f,1953,3342,85135324,{216685}
7065,STANDARD,RAHWAY,NJ,PRIMARY,40.6,-74.28,NA-US-NJ-RAHWAY,f,13805,22711,581229985,{}
7067,STANDARD,COLONIA,NJ,PRIMARY,40.59,-74.31,NA-US-NJ-COLONIA,f,9053,16467,498757056,{}
7068,STANDARD,ROSELAND,NJ,PRIMARY,40.82,-74.3,NA-US-NJ-ROSELAND,f,3222,5568,237307110,{}
7069,STANDARD,WATCHUNG,NJ,PRIMARY,40.64,-74.44,NA-US-NJ-WATCHUNG,f,2971,5361,324356236,{}
7082,STANDARD,TOWACO,NJ,PRIMARY,40.93,-74.34,NA-US-NJ-TOWACO,f,2759,5229,257723095,{}
7083,STANDARD,UNION,NJ,PRIMARY,40.69,-74.26,NA-US-NJ-UNION,f,26614,45808,1328121022,{}
7091,PO BOX,WESTFIELD,NJ,PRIMARY,40.65,-74.34,NA-US-NJ-WESTFIELD,f,,,,{}
7096,PO BOX,SECAUCUS,NJ,PRIMARY,40.78,-74.06,NA-US-NJ-SECAUCUS,f,,,,{}
7108,STANDARD,NEWARK,NJ,PRIMARY,40.72,-74.17,NA-US-NJ-NEWARK,f,9475,15957,224904265,{}
7111,STANDARD,IRVINGTON,NJ,PRIMARY,40.72,-74.23,NA-US-NJ-IRVINGTON,f,25527,41875,763787926,{}
7114,STANDARD,NEWARK,NJ,PRIMARY,40.72,-74.17,NA-US-NJ-NEWARK,f,3707,6170,83639461,{}
7175,UNIQUE,NEWARK,NJ,PRIMARY,40.72,-74.17,NA-US-NJ-NEWARK,f,,,,{}
7207,PO BOX,ELIZABETH,NJ,PRIMARY,40.66,-74.19,NA-US-NJ-ELIZABETH,f,1346,2167,37536605,{}
7303,PO BOX,JERSEY CITY,NJ,PRIMARY,40.71,-74.06,NA-US-NJ-JERSEY CITY,f,1115,1707,37296479,{}
7308,PO BOX,JERSEY CITY,NJ,PRIMARY,40.71,-74.06,NA-US-NJ-JERSEY CITY,f,,,,{}
7405,STANDARD,BUTLER,NJ,PRIMARY,40.99,-74.34,NA-US-NJ-BUTLER,f,8894,16050,714870240,{}
7419,STANDARD,HAMBURG,NJ,PRIMARY,41.14,-74.57,NA-US-NJ-HAMBURG,f,4479,7852,238765293,{217049}
7420,STANDARD,HASKELL,NJ,PRIMARY,41.02,-74.3,NA-US-NJ-HASKELL,f,2294,4023,115046084,{}
7440,STANDARD,PEQUANNOCK,NJ,PRIMARY,40.94,-74.29,NA-US-NJ-PEQUANNOCK,f,2283,4127,125866357,{}
7442,STANDARD,POMPTON LAKES,NJ,PRIMARY,41,-74.28,NA-US-NJ-POMPTON LAKES,f,5636,9786,307669635,{}
7450,STANDARD,RIDGEWOOD,NJ,PRIMARY,40.98,-74.11,NA-US-NJ-RIDGEWOOD,f,11384,21805,1643627780,{}
7451,PO BOX,RIDGEWOOD,NJ,PRIMARY,40.98,-74.11,NA-US-NJ-RIDGEWOOD,f,,,,{}
7461,STANDARD,SUSSEX,NJ,PRIMARY,41.2,-74.6,NA-US-NJ-SUSSEX,f,9271,16853,452422113,{}
7503,STANDARD,PATERSON,NJ,PRIMARY,40.91,-74.16,NA-US-NJ-PATERSON,f,8454,14649,213985183,{}
7504,STANDARD,PATERSON,NJ,PRIMARY,40.91,-74.16,NA-US-NJ-PATERSON,f,6481,10707,187198101,{}
7510,STANDARD,PATERSON,NJ,PRIMARY,40.91,-74.16,NA-US-NJ-PATERSON,f,,,,{}
7522,STANDARD,PATERSON,NJ,PRIMARY,40.91,-74.16,NA-US-NJ-PATERSON,f,9048,15644,213280661,{}
7533,PO BOX,PATERSON,NJ,PRIMARY,40.91,-74.16,NA-US-NJ-PATERSON,f,,,,{}
7538,PO BOX,HALEDON,NJ,PRIMARY,40.93,-74.18,NA-US-NJ-HALEDON,f,,,,{}
7544,PO BOX,PATERSON,NJ,PRIMARY,40.91,-74.16,NA-US-NJ-PATERSON,f,407,669,12301751,{}
7604,STANDARD,HASBROUCK HEIGHTS,NJ,PRIMARY,40.86,-74.07,NA-US-NJ-HASBROUCK HEIGHTS,f,5912,10360,335151999,{}
7620,PO BOX,ALPINE,NJ,PRIMARY,40.95,-73.92,NA-US-NJ-ALPINE,f,970,1696,193066840,{}
7621,STANDARD,BERGENFIELD,NJ,PRIMARY,40.92,-73.99,NA-US-NJ-BERGENFIELD,f,13035,22950,694469796,{}
7640,STANDARD,HARRINGTON PARK,NJ,PRIMARY,40.98,-73.98,NA-US-NJ-HARRINGTON PARK,f,2279,4361,194366466,{}
7641,STANDARD,HAWORTH,NJ,PRIMARY,40.96,-73.99,NA-US-NJ-HAWORTH,f,1634,3115,154887321,{}
7646,STANDARD,NEW MILFORD,NJ,PRIMARY,40.93,-74.01,NA-US-NJ-NEW MILFORD,f,8158,14165,438793723,{}
7649,STANDARD,ORADELL,NJ,PRIMARY,40.95,-74.03,NA-US-NJ-ORADELL,f,3914,7355,369791979,{}
7650,STANDARD,PALISADES PARK,NJ,PRIMARY,40.84,-73.99,NA-US-NJ-PALISADES PARK,f,7826,13274,295720999,{}
7657,STANDARD,RIDGEFIELD,NJ,PRIMARY,40.83,-74.01,NA-US-NJ-RIDGEFIELD,f,5149,9186,210476532,{}
7662,STANDARD,ROCHELLE PARK,NJ,PRIMARY,40.9,-74.07,NA-US-NJ-ROCHELLE PARK,f,3036,5133,149859083,{}
7663,STANDARD,SADDLE BROOK,NJ,PRIMARY,40.9,-74.09,NA-US-NJ-SADDLE BROOK,f,7107,12144,356318834,{}
7699,UNIQUE,TETERBORO,NJ,PRIMARY,40.85,-74.06,NA-US-NJ-TETERBORO,f,,,,{}
7702,STANDARD,SHREWSBURY,NJ,PRIMARY,40.32,-74.05,NA-US-NJ-SHREWSBURY,f,1929,3546,156385959,{}
7712,STANDARD,ASBURY PARK,NJ,PRIMARY,40.22,-74.01,NA-US-NJ-ASBURY PARK,f,19091,31680,890993762,{}
7719,STANDARD,BELMAR,NJ,PRIMARY,40.17,-74.02,NA-US-NJ-BELMAR,f,11193,18512,591279949,{}
7722,STANDARD,COLTS NECK,NJ,PRIMARY,40.28,-74.16,NA-US-NJ-COLTS NECK,f,5005,9440,647724878,{}
7727,STANDARD,FARMINGDALE,NJ,PRIMARY,40.19,-74.17,NA-US-NJ-FARMINGDALE,f,3435,6073,198721101,{}
7730,STANDARD,HAZLET,NJ,PRIMARY,40.42,-74.17,NA-US-NJ-HAZLET,f,8551,15325,474567969,{}
7754,PO BOX,NEPTUNE,NJ,PRIMARY,40.21,-74.08,NA-US-NJ-NEPTUNE,f,304,460,10882801,{}
7755,STANDARD,OAKHURST,NJ,PRIMARY,40.26,-74.02,NA-US-NJ-OAKHURST,f,3417,6022,187280145,{}
7756,STANDARD,OCEAN GROVE,NJ,PRIMARY,40.21,-74,NA-US-NJ-OCEAN GROVE,f,1853,2503,77204931,{}
7763,PO BOX,TENNENT,NJ,PRIMARY,40.29,-74.36,NA-US-NJ-TENNENT,f,,,,{}
7802,PO BOX,DOVER,NJ,PRIMARY,40.88,-74.55,NA-US-NJ-DOVER,f,661,1060,18097850,{}
7830,STANDARD,CALIFON,NJ,PRIMARY,40.71,-74.83,NA-US-NJ-CALIFON,f,3173,5979,312399747,{}
7831,PO BOX,CHANGEWATER,NJ,PRIMARY,40.74,-74.95,NA-US-NJ-CHANGEWATER,f,,,,{}
7839,PO BOX,GREENDELL,NJ,PRIMARY,40.97,-74.81,NA-US-NJ-GREENDELL,f,,,,{}
7842,PO BOX,HIBERNIA,NJ,PRIMARY,40.96,-74.48,NA-US-NJ-HIBERNIA,f,,,,{}
7844,PO BOX,HOPE,NJ,PRIMARY,40.91,-74.96,NA-US-NJ-HOPE,f,357,603,15088356,{}
7850,STANDARD,LANDING,NJ,PRIMARY,40.9,-74.66,NA-US-NJ-LANDING,f,3320,5877,170666819,{}
7851,STANDARD,LAYTON,NJ,PRIMARY,41.21,-74.82,NA-US-NJ-LAYTON,f,,,,{}
7866,STANDARD,ROCKAWAY,NJ,PRIMARY,40.89,-74.51,NA-US-NJ-ROCKAWAY,f,11529,20639,705960034,{}
7870,PO BOX,SCHOOLEYS MOUNTAIN,NJ,PRIMARY,40.78,-74.79,NA-US-NJ-SCHOOLEYS MOUNTAIN,f,,,,{}
7874,STANDARD,STANHOPE,NJ,PRIMARY,40.91,-74.7,NA-US-NJ-STANHOPE,f,4677,8305,255070986,{}
7882,STANDARD,WASHINGTON,NJ,PRIMARY,40.75,-74.98,NA-US-NJ-WASHINGTON,f,6983,12451,356234573,{}
7885,STANDARD,WHARTON,NJ,PRIMARY,40.89,-74.58,NA-US-NJ-WHARTON,f,5273,8999,240827990,{}
7901,STANDARD,SUMMIT,NJ,PRIMARY,40.71,-74.36,NA-US-NJ-SUMMIT,f,10538,19255,1934125803,{}
9807,MILITARY,DPO,AE,PRIMARY,,,NA-US-,f,,,,{}
7936,STANDARD,EAST HANOVER,NJ,PRIMARY,40.81,-74.36,NA-US-NJ-EAST HANOVER,f,6011,10659,437034066,{}
7977,PO BOX,PEAPACK,NJ,PRIMARY,40.7,-74.66,NA-US-NJ-PEAPACK,f,487,845,36810510,{}
7983,UNIQUE,WHIPPANY,NJ,PRIMARY,40.82,-74.41,NA-US-NJ-WHIPPANY,t,,,,{}
8009,STANDARD,BERLIN,NJ,PRIMARY,39.79,-74.93,NA-US-NJ-BERLIN,f,6593,11467,308358424,{}
8018,PO BOX,CEDAR BROOK,NJ,PRIMARY,39.72,-74.9,NA-US-NJ-CEDAR BROOK,f,,,,{}
8020,STANDARD,CLARKSBORO,NJ,PRIMARY,39.8,-75.22,NA-US-NJ-CLARKSBORO,f,1082,1925,53885604,{}
8027,STANDARD,GIBBSTOWN,NJ,PRIMARY,39.82,-75.27,NA-US-NJ-GIBBSTOWN,f,2567,4419,106114189,{}
8028,STANDARD,GLASSBORO,NJ,PRIMARY,39.7,-75.11,NA-US-NJ-GLASSBORO,f,7778,13452,330389745,{}
8041,STANDARD,JOBSTOWN,NJ,PRIMARY,40.03,-74.68,NA-US-NJ-JOBSTOWN,f,486,897,27643332,{}
8056,STANDARD,MICKLETON,NJ,PRIMARY,39.78,-75.25,NA-US-NJ-MICKLETON,f,2037,4070,153832688,{}
8057,STANDARD,MOORESTOWN,NJ,PRIMARY,39.97,-74.94,NA-US-NJ-MOORESTOWN,f,10033,18385,922187708,{}
8060,STANDARD,MOUNT HOLLY,NJ,PRIMARY,39.99,-74.78,NA-US-NJ-MOUNT HOLLY,f,12422,21570,576915574,{}
8061,STANDARD,MOUNT ROYAL,NJ,PRIMARY,39.81,-75.2,NA-US-NJ-MOUNT ROYAL,f,1235,2344,80556898,{}
8063,STANDARD,NATIONAL PARK,NJ,PRIMARY,39.86,-75.18,NA-US-NJ-NATIONAL PARK,f,1597,2747,60197531,{}
8071,STANDARD,PITMAN,NJ,PRIMARY,39.73,-75.13,NA-US-NJ-PITMAN,f,4842,8346,213265747,{}
8077,STANDARD,RIVERTON,NJ,PRIMARY,40.01,-75.01,NA-US-NJ-RIVERTON,f,9228,16482,480003099,{}
8081,STANDARD,SICKLERVILLE,NJ,PRIMARY,39.73,-74.98,NA-US-NJ-SICKLERVILLE,f,23063,41753,1155059884,{}
8084,STANDARD,STRATFORD,NJ,PRIMARY,39.82,-75.01,NA-US-NJ-STRATFORD,f,3472,6077,145427776,{}
8088,STANDARD,VINCENTOWN,NJ,PRIMARY,39.8,-74.62,NA-US-NJ-VINCENTOWN,f,12356,22028,626327238,{}
8093,STANDARD,WESTVILLE,NJ,PRIMARY,39.86,-75.13,NA-US-NJ-WESTVILLE,f,4804,7971,174080254,{}
8096,STANDARD,WEST DEPTFORD,NJ,PRIMARY,39.83,-75.15,NA-US-NJ-WEST DEPTFORD,f,17291,29504,766997232,{}
8203,STANDARD,BRIGANTINE,NJ,PRIMARY,39.41,-74.36,NA-US-NJ-BRIGANTINE,f,5167,8255,187209674,{}
96543,MILITARY,APO,AP,PRIMARY,,,NA-US-,f,,,,{}
8213,PO BOX,COLOGNE,NJ,PRIMARY,39.51,-74.56,NA-US-NJ-COLOGNE,f,,,,{}
8223,STANDARD,MARMORA,NJ,PRIMARY,39.26,-74.66,NA-US-NJ-MARMORA,f,2303,3924,100047664,{}
8247,STANDARD,STONE HARBOR,NJ,PRIMARY,39.04,-74.76,NA-US-NJ-STONE HARBOR,f,595,915,22498742,{}
8311,STANDARD,CEDARVILLE,NJ,PRIMARY,39.32,-75.2,NA-US-NJ-CEDARVILLE,f,997,1831,35405636,{}
8322,STANDARD,FRANKLINVILLE,NJ,PRIMARY,39.61,-75.02,NA-US-NJ-FRANKLINVILLE,f,5103,9278,237408763,{}
8324,STANDARD,HEISLERVILLE,NJ,PRIMARY,39.24,-74.99,NA-US-NJ-HEISLERVILLE,f,,,,{}
8344,STANDARD,NEWFIELD,NJ,PRIMARY,39.54,-75.01,NA-US-NJ-NEWFIELD,f,2917,5101,110871483,{}
8348,STANDARD,PORT ELIZABETH,NJ,PRIMARY,39.39,-74.88,NA-US-NJ-PORT ELIZABETH,f,,,,{}
8349,STANDARD,PORT NORRIS,NJ,PRIMARY,39.24,-75.04,NA-US-NJ-PORT NORRIS,f,903,1575,27747387,{}
8353,PO BOX,SHILOH,NJ,PRIMARY,39.45,-75.29,NA-US-NJ-SHILOH,f,348,593,12781419,{}
8405,UNIQUE,ATLANTIC CITY,NJ,PRIMARY,39.36,-74.42,NA-US-NJ-ATLANTIC CITY,f,,,,{}
8501,STANDARD,ALLENTOWN,NJ,PRIMARY,40.17,-74.58,NA-US-NJ-ALLENTOWN,f,3146,5901,222701541,{}
8504,PO BOX,BLAWENBURG,NJ,PRIMARY,40.4,-74.7,NA-US-NJ-BLAWENBURG,f,,,,{}
8514,STANDARD,CREAM RIDGE,NJ,PRIMARY,40.14,-74.49,NA-US-NJ-CREAM RIDGE,f,2155,4004,129801904,{}
8515,STANDARD,CHESTERFIELD,NJ,PRIMARY,40.15,-74.66,NA-US-NJ-CHESTERFIELD,f,2138,4172,159716799,{}
8520,STANDARD,HIGHTSTOWN,NJ,PRIMARY,40.26,-74.52,NA-US-NJ-HIGHTSTOWN,f,13496,24186,797080400,{220886}
8528,STANDARD,KINGSTON,NJ,PRIMARY,40.37,-74.6,NA-US-NJ-KINGSTON,f,266,431,13288429,{}
8554,STANDARD,ROEBLING,NJ,PRIMARY,40.11,-74.77,NA-US-NJ-ROEBLING,f,1967,3341,81550704,{}
8555,PO BOX,ROOSEVELT,NJ,PRIMARY,40.22,-74.47,NA-US-NJ-ROOSEVELT,f,444,796,22653514,{}
8557,PO BOX,SERGEANTSVILLE,NJ,PRIMARY,40.45,-74.94,NA-US-NJ-SERGEANTSVILLE,f,,,,{}
8601,PO BOX,TRENTON,NJ,PRIMARY,40.22,-74.76,NA-US-NJ-TRENTON,f,,,,{}
8608,STANDARD,TRENTON,NJ,PRIMARY,40.22,-74.76,NA-US-NJ-TRENTON,f,351,522,7588831,{}
8609,STANDARD,TRENTON,NJ,PRIMARY,40.22,-74.76,NA-US-NJ-TRENTON,f,5231,8578,127310689,{}
8619,STANDARD,TRENTON,NJ,PRIMARY,40.22,-74.76,NA-US-NJ-TRENTON,f,11573,19382,565510328,{}
9647,MILITARY,APO,AE,PRIMARY,,,"EU-ES-MADRID, AMT",f,,,,{}
8628,STANDARD,TRENTON,NJ,PRIMARY,40.22,-74.76,NA-US-NJ-TRENTON,f,4832,7650,243838915,{}
8647,UNIQUE,TRENTON,NJ,PRIMARY,40.22,-74.76,NA-US-NJ-TRENTON,f,,,,{}
8723,STANDARD,BRICK,NJ,PRIMARY,40.06,-74.11,NA-US-NJ-BRICK,f,16373,27903,663836948,{}
8731,STANDARD,FORKED RIVER,NJ,PRIMARY,39.84,-74.19,NA-US-NJ-FORKED RIVER,f,9914,17395,418258250,{}
8732,PO BOX,ISLAND HEIGHTS,NJ,PRIMARY,39.94,-74.14,NA-US-NJ-ISLAND HEIGHTS,f,939,1563,42324176,{}
8735,STANDARD,LAVALLETTE,NJ,PRIMARY,39.96,-74.06,NA-US-NJ-LAVALLETTE,f,1815,2840,56371156,{}
8736,STANDARD,MANASQUAN,NJ,PRIMARY,40.11,-74.03,NA-US-NJ-MANASQUAN,f,6520,11328,413093039,{}
8740,PO BOX,OCEAN GATE,NJ,PRIMARY,39.92,-74.13,NA-US-NJ-OCEAN GATE,f,1013,1669,34989428,{}
8741,STANDARD,PINE BEACH,NJ,PRIMARY,39.93,-74.17,NA-US-NJ-PINE BEACH,f,1394,2458,63209855,{}
8754,PO BOX,TOMS RIVER,NJ,PRIMARY,39.95,-74.18,NA-US-NJ-TOMS RIVER,f,450,640,13476044,{}
8756,PO BOX,TOMS RIVER,NJ,PRIMARY,39.95,-74.18,NA-US-NJ-TOMS RIVER,f,,,,{}
8758,STANDARD,WARETOWN,NJ,PRIMARY,39.78,-74.19,NA-US-NJ-WARETOWN,f,3688,6336,128012058,{}
8817,STANDARD,EDISON,NJ,PRIMARY,40.52,-74.36,NA-US-NJ-EDISON,f,22242,39684,1166083351,{}
8831,STANDARD,MONROE TOWNSHIP,NJ,PRIMARY,40.34,-74.44,NA-US-NJ-MONROE TOWNSHIP,f,23277,41128,1196368976,{}
8836,STANDARD,MARTINSVILLE,NJ,PRIMARY,40.6,-74.56,NA-US-NJ-MARTINSVILLE,f,1995,3670,191839706,{}
8848,STANDARD,MILFORD,NJ,PRIMARY,40.56,-75.09,NA-US-NJ-MILFORD,f,4036,7470,261146410,{}
8868,PO BOX,QUAKERTOWN,NJ,PRIMARY,40.55,-74.94,NA-US-NJ-QUAKERTOWN,f,,,,{}
8871,PO BOX,SAYREVILLE,NJ,PRIMARY,40.46,-74.32,NA-US-NJ-SAYREVILLE,f,,,,{}
8872,STANDARD,SAYREVILLE,NJ,PRIMARY,40.46,-74.32,NA-US-NJ-SAYREVILLE,f,9505,16564,471118379,{}
8880,STANDARD,SOUTH BOUND BROOK,NJ,PRIMARY,40.55,-74.52,NA-US-NJ-SOUTH BOUND BROOK,f,2348,3957,104624844,{}
8884,STANDARD,SPOTSWOOD,NJ,PRIMARY,40.39,-74.39,NA-US-NJ-SPOTSWOOD,f,3980,7032,198839932,{}
8887,STANDARD,THREE BRIDGES,NJ,PRIMARY,40.52,-74.8,NA-US-NJ-THREE BRIDGES,f,660,978,36052351,{}
8902,STANDARD,NORTH BRUNSWICK,NJ,PRIMARY,40.45,-74.48,NA-US-NJ-NORTH BRUNSWICK,f,19823,34952,1091723370,{}
8906,PO BOX,NEW BRUNSWICK,NJ,PRIMARY,40.48,-74.44,NA-US-NJ-NEW BRUNSWICK,f,,,,{}
8922,UNIQUE,NEW BRUNSWICK,NJ,PRIMARY,40.48,-74.45,NA-US-NJ-NEW BRUNSWICK,t,,,,{}
9011,MILITARY,APO,AE,PRIMARY,,,EU-DE-DAGGER KASERNE,f,,,,{}
9028,MILITARY,APO,AE,PRIMARY,,,EU-DE-BENJAMIN FRANKLIN VILLAGE,f,,,,{}
9033,MILITARY,APO,AE,PRIMARY,,,EU-DE-LEDWARD BARRACKS,f,,,,{}
9042,MILITARY,APO,AE,PRIMARY,,,NA-US-,f,,,,{}
9054,MILITARY,APO,AE,PRIMARY,,,EU-DE-DAENNER KASERNE,f,,,,{}
9303,MILITARY,APO,AE,PRIMARY,,,ME-BH-MCA BAHRAIN,t,,,,{}
9306,MILITARY,APO,AE,PRIMARY,,,ME-KW-CFLCC CAMP ARIFJAN,f,,,,{}
9308,MILITARY,APO,AE,PRIMARY,,,ME-IQ-FOB HAMMER,f,,,,{}
9309,MILITARY,APO,AE,PRIMARY,,,ME-QA-AL UDEID AIR BASE,f,,,,{}
9313,MILITARY,APO,AE,PRIMARY,,,ME-AF-FOB RAMROD,f,,,,{}
9332,MILITARY,APO,AE,PRIMARY,,,ME-IQ-CAMP ECHO,t,,,,{}
9337,MILITARY,APO,AE,PRIMARY,,,ME-KW-KUWAIT NAVAL BASE,f,,,,{}
9346,MILITARY,APO,AE,PRIMARY,,,NA-US-,t,,,,{}
9348,MILITARY,APO,AE,PRIMARY,,,ME-IQ-FOB UNION 3 INTERNATIONAL ZONE,f,,,,{}
9366,MILITARY,APO,AE,PRIMARY,,,ME-KW-CAMP ARIFJAN,f,,,,{}
9372,MILITARY,FPO,AE,PRIMARY,,,ME-AF-USMC BASTION,f,,,,{}
9380,MILITARY,APO,AE,PRIMARY,,,ME-AF-FOB TARIN KOWT,f,,,,{}
9396,MILITARY,APO,AE,PRIMARY,,,ME-IQ-AR RAMADI IRAQ,t,,,,{}
9397,MILITARY,APO,AE,PRIMARY,,,NA-US-,f,,,,{}
9459,MILITARY,APO,AE,PRIMARY,,,NA-GB-MILDENHALL,f,,,,{}
9464,MILITARY,APO,AE,PRIMARY,,,NA-GB-LAKENHEATH,f,,,,{}
9469,MILITARY,APO,AE,PRIMARY,,,NA-GB-RAF MOLESWORTH,f,,,,{}
9499,MILITARY,FPO,AE,PRIMARY,,,NA-US-,t,,,,{}
9510,MILITARY,FPO,AE,PRIMARY,,,NA-US-,f,,,,{}
9554,MILITARY,FPO,AE,PRIMARY,,,NA-US-,f,,,,{}
9556,MILITARY,FPO,AE,PRIMARY,,,NA-US-,f,,,,{}
9565,MILITARY,FPO,AE,PRIMARY,,,NA-US-,f,,,,{}
9567,MILITARY,FPO,AE,PRIMARY,,,NA-US-,f,,,,{}
9574,MILITARY,FPO,AE,PRIMARY,,,NA-US-,f,,,,{}
9577,MILITARY,FPO,AE,PRIMARY,,,NA-US-,f,,,,{}
9582,MILITARY,FPO,AE,PRIMARY,,,NA-US-,f,,,,{}
9588,MILITARY,FPO,AE,PRIMARY,,,NA-US-,f,,,,{}
9608,MILITARY,FPO,AE,PRIMARY,,,EU-IT-FISCSI SITE ROME DOD,f,,,,{}
9609,MILITARY,FPO,AE,PRIMARY,,,EU-IT-FISC SIGONELLA GAETA,f,,,,{}
9610,MILITARY,APO,AE,PRIMARY,,,EU-IT-GHEDI,f,,,,{}
9645,MILITARY,FPO,AE,PRIMARY,,,EU-ES-NAVAL STATION ROTA,f,,,,{}
9705,MILITARY,APO,AE,PRIMARY,,,EU-BE-NATO HEADQUARTERS- BELGIUM,f,,,,{}
9706,MILITARY,APO,AE,PRIMARY,,,EU-NO-STAVABGER,f,,,,{}
9713,MILITARY,APO,AE,PRIMARY,,,EU-BE-NATO PROGRAMMING CENTER GLONS,f,,,,{}
9714,MILITARY,APO,AE,PRIMARY,,,EU-BE-US ARMY GARRISON BENELUX,f,,,,{}
9726,MILITARY,DPO,AE,PRIMARY,,,EU-PT-LISBON,f,,,,{}
9727,MILITARY,DPO,AE,PRIMARY,,,NA-US-,f,,,,{}
9731,MILITARY,DPO,AE,PRIMARY,,,NA-US-,f,,,,{}
9733,MILITARY,FPO,AE,PRIMARY,,,NA-CA-PEP HALIFAX  NOVA SCOTIA,f,,,,{}
9734,MILITARY,DPO,AE,PRIMARY,,,NA-US-,f,,,,{}
9762,MILITARY,DPO,AE,PRIMARY,,,NA-US-,f,,,,{}
9769,MILITARY,DPO,AE,PRIMARY,,,NA-US-,f,,,,{}
9803,MILITARY,APO,AE,PRIMARY,,,ME-SA-RIYADH-ESKAN VILLAGE,f,,,,{}
9804,MILITARY,APO,AE,PRIMARY,,,EU-TR-ISTANBUL,f,,,,{}
9834,MILITARY,FPO,AE,PRIMARY,,,ME-BH-MANAMA BA,f,,,,{}
9838,MILITARY,FPO,AE,PRIMARY,,,ME-BH-FLEET MAIL CENTER - MAHARRAQ,f,,,,{}
9840,MILITARY,FPO,AE,PRIMARY,,,ME-BH-NAVAL SECURITY FORCE - ASU,f,,,,{}
9841,MILITARY,APO,AE,PRIMARY,,,EU-GR-ATHENS AMT,f,,,,{}
9844,MILITARY,FPO,AE,PRIMARY,,,EU-GR-NATO HEADQUARTERS LARISSAGR,f,,,,{}
9848,MILITARY,APO,AE,PRIMARY,,,,f,,,,{}
9868,MILITARY,APO,AE,PRIMARY,,,AF-EG-CAIRO,f,,,,{}
9873,MILITARY,DPO,AE,PRIMARY,,,NA-US-,f,,,,{}
9892,MILITARY,DPO,AE,PRIMARY,,,NA-US-,f,,,,{}
10003,STANDARD,NEW YORK,NY,PRIMARY,40.71,-73.99,NA-US-NY-NEW YORK,f,28817,36569,,{}
10007,STANDARD,NEW YORK,NY,PRIMARY,40.71,-73.99,NA-US-NY-NEW YORK,f,3551,5396,1143186856,{}
10009,STANDARD,NEW YORK,NY,PRIMARY,40.71,-73.99,NA-US-NY-NEW YORK,f,31275,42731,1572036810,{}
10011,STANDARD,NEW YORK,NY,PRIMARY,40.71,-73.99,NA-US-NY-NEW YORK,f,30434,38784,1264531973,{}
10013,STANDARD,NEW YORK,NY,PRIMARY,40.71,-73.99,NA-US-NY-NEW YORK,f,15981,24199,450956340,{}
10017,STANDARD,NEW YORK,NY,PRIMARY,40.71,-73.99,NA-US-NY-NEW YORK,f,15803,19975,1685441363,{}
10027,STANDARD,NEW YORK,NY,PRIMARY,40.71,-73.99,NA-US-NY-NEW YORK,f,25372,37948,918919244,{}
10028,STANDARD,NEW YORK,NY,PRIMARY,40.71,-73.99,NA-US-NY-NEW YORK,f,25557,36525,964357485,{}
10033,STANDARD,NEW YORK,NY,PRIMARY,40.71,-73.99,NA-US-NY-NEW YORK,f,30134,45474,881087274,{}
10035,STANDARD,NEW YORK,NY,PRIMARY,40.71,-73.99,NA-US-NY-NEW YORK,f,13067,20395,371898932,{}
10037,STANDARD,NEW YORK,NY,PRIMARY,40.71,-73.99,NA-US-NY-NEW YORK,f,9077,13151,302363285,{}
10041,STANDARD,NEW YORK,NY,PRIMARY,40.71,-73.99,NA-US-NY-NEW YORK,f,,,,{}
10080,UNIQUE,NEW YORK,NY,PRIMARY,40.71,-73.99,NA-US-NY-NEW YORK,f,,,,{}
10082,UNIQUE,NEW YORK,NY,PRIMARY,40.77,-73.98,NA-US-NY-NEW YORK,t,,,,{}
10095,STANDARD,NEW YORK,NY,PRIMARY,40.71,-73.99,NA-US-NY-NEW YORK,f,,,,{}
10115,STANDARD,NEW YORK,NY,PRIMARY,40.71,-73.99,NA-US-NY-NEW YORK,f,,,,{}
10117,UNIQUE,NEW YORK,NY,PRIMARY,40.71,-73.99,NA-US-NY-NEW YORK,f,,,,{}
10153,STANDARD,NEW YORK,NY,PRIMARY,40.71,-73.99,NA-US-NY-NEW YORK,f,,,,{}
10154,STANDARD,NEW YORK,NY,PRIMARY,40.71,-73.99,NA-US-NY-NEW YORK,f,,,,{}
10156,PO BOX,NEW YORK,NY,PRIMARY,40.71,-73.99,NA-US-NY-NEW YORK,f,259,319,11270928,{}
10157,UNIQUE,NEW YORK,NY,PRIMARY,40.71,-73.99,NA-US-NY-NEW YORK,f,,,,{}
10163,PO BOX,NEW YORK,NY,PRIMARY,40.71,-73.99,NA-US-NY-NEW YORK,f,1245,1807,112311653,{}
10164,UNIQUE,NEW YORK,NY,PRIMARY,40.71,-73.99,NA-US-NY-NEW YORK,f,,,,{}
10166,STANDARD,NEW YORK,NY,PRIMARY,40.71,-73.99,NA-US-NY-NEW YORK,f,,,,{}
10169,STANDARD,NEW YORK,NY,PRIMARY,40.71,-73.99,NA-US-NY-NEW YORK,f,,,,{}
10199,STANDARD,NEW YORK,NY,PRIMARY,40.71,-73.99,NA-US-NY-NEW YORK,f,,,,{}
10200,STANDARD,NEW YORK,NY,PRIMARY,40.77,73.95,NA-US-NY-NEW YORK,f,,,,{}
10203,UNIQUE,NEW YORK,NY,PRIMARY,40.71,-73.99,NA-US-NY-NEW YORK,f,,,,{}
10211,UNIQUE,NEW YORK,NY,PRIMARY,40.71,-73.99,NA-US-NY-NEW YORK,f,,,,{}
10249,PO BOX,NEW YORK,NY,PRIMARY,40.71,-73.99,NA-US-NY-NEW YORK,f,,,,{}
10257,UNIQUE,NEW YORK,NY,PRIMARY,40.71,-73.99,NA-US-NY-NEW YORK,f,,,,{}
10269,UNIQUE,NEW YORK,NY,PRIMARY,40.71,-73.99,NA-US-NY-NEW YORK,f,,,,{}
10280,STANDARD,NEW YORK,NY,PRIMARY,40.71,-73.99,NA-US-NY-NEW YORK,f,3826,5755,548083350,{}
10281,STANDARD,NEW YORK,NY,PRIMARY,40.71,-73.99,NA-US-NY-NEW YORK,f,1135,2180,193824120,{}
10285,UNIQUE,NEW YORK,NY,PRIMARY,40.71,-73.99,NA-US-NY-NEW YORK,f,,,,{}
10302,STANDARD,STATEN ISLAND,NY,PRIMARY,40.58,-74.14,NA-US-NY-STATEN ISLAND,f,7203,12355,278868142,{}
10307,STANDARD,STATEN ISLAND,NY,PRIMARY,40.58,-74.14,NA-US-NY-STATEN ISLAND,f,5963,10873,361115820,{}
10310,STANDARD,STATEN ISLAND,NY,PRIMARY,40.58,-74.14,NA-US-NY-STATEN ISLAND,f,10159,17604,465022586,{}
10312,STANDARD,STATEN ISLAND,NY,PRIMARY,40.58,-74.14,NA-US-NY-STATEN ISLAND,f,28383,50774,1544733562,{}
10456,STANDARD,BRONX,NY,PRIMARY,40.84,-73.87,NA-US-NY-BRONX,f,34793,58750,732907466,{}
10465,STANDARD,BRONX,NY,PRIMARY,40.84,-73.87,NA-US-NY-BRONX,f,18686,30798,817052868,{}
10469,STANDARD,BRONX,NY,PRIMARY,40.84,-73.87,NA-US-NY-BRONX,f,28964,47625,1017556583,{}
10470,STANDARD,BRONX,NY,PRIMARY,40.84,-73.87,NA-US-NY-BRONX,f,7000,10880,260963512,{}
10472,STANDARD,BRONX,NY,PRIMARY,40.84,-73.87,NA-US-NY-BRONX,f,26025,43761,630416228,{}
10473,STANDARD,BRONX,NY,PRIMARY,40.84,-73.87,NA-US-NY-BRONX,f,26122,42812,817850845,{}
10474,STANDARD,BRONX,NY,PRIMARY,40.84,-73.87,NA-US-NY-BRONX,f,4369,7377,97578251,{}
10502,STANDARD,ARDSLEY,NY,PRIMARY,41.01,-73.84,NA-US-NY-ARDSLEY,f,2887,5344,246727865,{}
10505,STANDARD,BALDWIN PLACE,NY,PRIMARY,41.32,-73.74,NA-US-NY-BALDWIN PLACE,f,563,1113,45340262,{}
10506,STANDARD,BEDFORD,NY,PRIMARY,41.19,-73.64,NA-US-NY-BEDFORD,f,2934,5515,589716522,{}
10507,STANDARD,BEDFORD HILLS,NY,PRIMARY,41.22,-73.69,NA-US-NY-BEDFORD HILLS,f,2596,4470,251557833,{}
10517,PO BOX,CROMPOND,NY,PRIMARY,41.26,-73.89,NA-US-NY-CROMPOND,f,454,809,25296212,{}
10519,PO BOX,CROTON FALLS,NY,PRIMARY,41.3,-73.71,NA-US-NY-CROTON FALLS,f,346,571,18013268,{}
10522,STANDARD,DOBBS FERRY,NY,PRIMARY,41.01,-73.86,NA-US-NY-DOBBS FERRY,f,5121,8950,443731710,{}
10535,STANDARD,JEFFERSON VALLEY,NY,PRIMARY,41.33,-73.79,NA-US-NY-JEFFERSON VALLEY,f,367,638,17503457,{}
10536,STANDARD,KATONAH,NY,PRIMARY,41.26,-73.68,NA-US-NY-KATONAH,f,5294,9794,672993387,{}
10547,STANDARD,MOHEGAN LAKE,NY,PRIMARY,41.31,-73.84,NA-US-NY-MOHEGAN LAKE,f,3425,6139,204201847,{}
10548,STANDARD,MONTROSE,NY,PRIMARY,41.24,-73.94,NA-US-NY-MONTROSE,f,1473,2607,91164579,{}
10562,STANDARD,OSSINING,NY,PRIMARY,41.15,-73.87,NA-US-NY-OSSINING,f,14310,24284,806876363,{}
10567,STANDARD,CORTLANDT MANOR,NY,PRIMARY,41.3,-73.89,NA-US-NY-CORTLANDT MANOR,f,9211,17127,685636447,{}
10587,PO BOX,SHENOROCK,NY,PRIMARY,41.3,-73.71,NA-US-NY-SHENOROCK,f,344,594,16045749,{}
10595,STANDARD,VALHALLA,NY,PRIMARY,41.07,-73.77,NA-US-NY-VALHALLA,f,3277,5730,220628424,{}
10598,STANDARD,YORKTOWN HEIGHTS,NY,PRIMARY,41.27,-73.78,NA-US-NY-YORKTOWN HEIGHTS,f,14102,25981,1031538853,{}
10701,STANDARD,YONKERS,NY,PRIMARY,40.94,-73.86,NA-US-NY-YONKERS,f,26369,43733,944660870,{}
10705,STANDARD,YONKERS,NY,PRIMARY,40.94,-73.86,NA-US-NY-YONKERS,f,16745,28216,584002617,{}
10801,STANDARD,NEW ROCHELLE,NY,PRIMARY,40.92,-73.77,NA-US-NY-NEW ROCHELLE,f,17269,29299,827407070,{}
10919,STANDARD,CIRCLEVILLE,NY,PRIMARY,41.52,-74.38,NA-US-NY-CIRCLEVILLE,f,573,1027,28078108,{}
10930,STANDARD,HIGHLAND MILLS,NY,PRIMARY,41.35,-74.12,NA-US-NY-HIGHLAND MILLS,f,4153,7893,283230231,{}
10964,STANDARD,PALISADES,NY,PRIMARY,41,-73.91,NA-US-NY-PALISADES,f,744,1300,58509576,{}
10970,STANDARD,POMONA,NY,PRIMARY,41.18,-74.05,NA-US-NY-POMONA,f,4913,8344,290279678,{}
10975,STANDARD,SOUTHFIELDS,NY,PRIMARY,41.25,-74.17,NA-US-NY-SOUTHFIELDS,f,,,,{}
10977,STANDARD,SPRING VALLEY,NY,PRIMARY,41.11,-74.04,NA-US-NY-SPRING VALLEY,f,21436,39075,843066613,{}
10982,PO BOX,TALLMAN,NY,PRIMARY,41.11,-74.1,NA-US-NY-TALLMAN,f,,,,{}
10983,STANDARD,TAPPAN,NY,PRIMARY,41.02,-73.95,NA-US-NY-TAPPAN,f,2855,5218,195090412,{}
10985,STANDARD,THOMPSON RIDGE,NY,PRIMARY,41.58,-74.36,NA-US-NY-THOMPSON RIDGE,f,,,,{}
10986,STANDARD,TOMKINS COVE,NY,PRIMARY,41.27,-73.98,NA-US-NY-TOMKINS COVE,f,892,1596,52610470,{}
10994,STANDARD,WEST NYACK,NY,PRIMARY,41.09,-73.96,NA-US-NY-WEST NYACK,f,3691,6663,301060291,{}
10996,STANDARD,WEST POINT,NY,PRIMARY,41.36,-74.02,NA-US-NY-WEST POINT,f,1027,2389,65496931,{}
11003,STANDARD,ELMONT,NY,PRIMARY,40.7,-73.7,NA-US-NY-ELMONT,f,21037,35663,871995800,{}
11020,STANDARD,GREAT NECK,NY,PRIMARY,40.8,-73.73,NA-US-NY-GREAT NECK,f,3047,5513,242518137,{}
11021,STANDARD,GREAT NECK,NY,PRIMARY,40.8,-73.73,NA-US-NY-GREAT NECK,f,9528,15695,717736791,{}
11022,PO BOX,GREAT NECK,NY,PRIMARY,40.8,-73.73,NA-US-NY-GREAT NECK,f,,,,{}
11041,UNIQUE,NEW HYDE PARK,NY,PRIMARY,40.73,-73.68,NA-US-NY-NEW HYDE PARK,t,,,,{}
11050,STANDARD,PORT WASHINGTON,NY,PRIMARY,40.82,-73.68,NA-US-NY-PORT WASHINGTON,f,14570,25840,1444576628,{}
11051,UNIQUE,PORT WASHINGTON,NY,PRIMARY,40.82,-73.68,NA-US-NY-PORT WASHINGTON,f,,,,{}
11053,UNIQUE,PORT WASHINGTON,NY,PRIMARY,40.82,-73.68,NA-US-NY-PORT WASHINGTON,f,,,,{}
11054,UNIQUE,PORT WASHINGTON,NY,PRIMARY,40.82,-73.68,NA-US-NY-PORT WASHINGTON,f,,,,{}
11102,STANDARD,ASTORIA,NY,PRIMARY,40.78,-73.91,NA-US-NY-ASTORIA,f,16862,25440,591210000,{}
11103,STANDARD,ASTORIA,NY,PRIMARY,40.78,-73.91,NA-US-NY-ASTORIA,f,19308,28705,667577258,{}
11105,STANDARD,ASTORIA,NY,PRIMARY,40.78,-73.91,NA-US-NY-ASTORIA,f,19011,28457,722693754,{}
11206,STANDARD,BROOKLYN,NY,PRIMARY,40.64,-73.94,NA-US-NY-BROOKLYN,f,30896,50200,755431690,{}
11215,STANDARD,BROOKLYN,NY,PRIMARY,40.64,-73.94,NA-US-NY-BROOKLYN,f,33673,51113,,{}
11216,STANDARD,BROOKLYN,NY,PRIMARY,40.64,-73.94,NA-US-NY-BROOKLYN,f,23362,34873,685338566,{}
11218,STANDARD,BROOKLYN,NY,PRIMARY,40.64,-73.94,NA-US-NY-BROOKLYN,f,30223,51742,1081603665,{}
11220,STANDARD,BROOKLYN,NY,PRIMARY,40.64,-73.94,NA-US-NY-BROOKLYN,f,42306,73470,935825193,{}
11224,STANDARD,BROOKLYN,NY,PRIMARY,40.64,-73.94,NA-US-NY-BROOKLYN,f,19660,31619,546173980,{}
11234,STANDARD,BROOKLYN,NY,PRIMARY,40.64,-73.94,NA-US-NY-BROOKLYN,f,39824,67156,1738149669,{}
11239,STANDARD,BROOKLYN,NY,PRIMARY,40.64,-73.94,NA-US-NY-BROOKLYN,f,6522,10182,195781590,{}
11240,STANDARD,BROOKLYN,NY,PRIMARY,40.69,-73.98,NA-US-NY-BROOKLYN,t,,,,{}
11242,STANDARD,BROOKLYN,NY,PRIMARY,40.64,-73.94,NA-US-NY-BROOKLYN,f,,,,{}
11251,UNIQUE,BROOKLYN,NY,PRIMARY,40.64,-73.94,NA-US-NY-BROOKLYN,f,,,,{}
11357,STANDARD,WHITESTONE,NY,PRIMARY,40.79,-73.81,NA-US-NY-WHITESTONE,f,19016,32492,892739822,{}
11359,STANDARD,BAYSIDE,NY,PRIMARY,40.79,-73.77,NA-US-NY-BAYSIDE,f,,,,{}
11360,STANDARD,BAYSIDE,NY,PRIMARY,40.78,-73.78,NA-US-NY-BAYSIDE,f,9896,16104,497101917,{}
11373,STANDARD,ELMHURST,NY,PRIMARY,40.72,-73.87,NA-US-NY-ELMHURST,f,44846,75771,1129808721,{}
11374,STANDARD,REGO PARK,NY,PRIMARY,40.72,-73.86,NA-US-NY-REGO PARK,f,21742,35181,883386123,{}
11375,STANDARD,FOREST HILLS,NY,PRIMARY,40.72,-73.84,NA-US-NY-FOREST HILLS,f,35253,56345,1987025041,{}
11379,STANDARD,MIDDLE VILLAGE,NY,PRIMARY,40.71,-73.88,NA-US-NY-MIDDLE VILLAGE,f,16885,28507,769528918,{}
11386,PO BOX,RIDGEWOOD,NY,PRIMARY,40.7,-73.89,NA-US-NY-RIDGEWOOD,f,356,552,11908948,{}
11405,UNIQUE,JAMAICA,NY,PRIMARY,40.68,-73.78,NA-US-NY-JAMAICA,f,,,,{}
11411,STANDARD,CAMBRIA HEIGHTS,NY,PRIMARY,40.69,-73.73,NA-US-NY-CAMBRIA HEIGHTS,f,9924,15695,379832612,{}
11412,STANDARD,SAINT ALBANS,NY,PRIMARY,40.69,-73.75,NA-US-NY-SAINT ALBANS,f,16657,26508,564187781,{}
11417,STANDARD,OZONE PARK,NY,PRIMARY,40.69,-73.85,NA-US-NY-OZONE PARK,f,13288,23069,454051972,{}
11419,STANDARD,SOUTH RICHMOND HILL,NY,PRIMARY,40.68,-73.82,NA-US-NY-SOUTH RICHMOND HILL,f,19848,35160,554108675,{}
11420,STANDARD,SOUTH OZONE PARK,NY,PRIMARY,40.67,-73.81,NA-US-NY-SOUTH OZONE PARK,f,19959,34717,644033694,{}
11428,STANDARD,QUEENS VILLAGE,NY,PRIMARY,40.72,-73.74,NA-US-NY-QUEENS VILLAGE,f,9216,16017,341921071,{}
11433,STANDARD,JAMAICA,NY,PRIMARY,40.68,-73.78,NA-US-NY-JAMAICA,f,13011,21603,373931850,{}
11435,STANDARD,JAMAICA,NY,PRIMARY,40.68,-73.78,NA-US-NY-JAMAICA,f,23309,38992,744588179,{}
11451,UNIQUE,JAMAICA,NY,PRIMARY,40.68,-73.78,NA-US-NY-JAMAICA,f,,,,{}
11507,STANDARD,ALBERTSON,NY,PRIMARY,40.77,-73.64,NA-US-NY-ALBERTSON,f,3704,6679,245080076,{}
11514,STANDARD,CARLE PLACE,NY,PRIMARY,40.75,-73.61,NA-US-NY-CARLE PLACE,f,2484,4202,129438852,{}
11516,STANDARD,CEDARHURST,NY,PRIMARY,40.62,-73.72,NA-US-NY-CEDARHURST,f,3297,6033,239832071,{}
11542,STANDARD,GLEN COVE,NY,PRIMARY,40.86,-73.63,NA-US-NY-GLEN COVE,f,13150,21656,637267950,{}
11552,STANDARD,WEST HEMPSTEAD,NY,PRIMARY,40.69,-73.65,NA-US-NY-WEST HEMPSTEAD,f,12022,20840,602984615,{}
11553,STANDARD,UNIONDALE,NY,PRIMARY,40.7,-73.59,NA-US-NY-UNIONDALE,f,12598,20800,440886810,{}
11554,STANDARD,EAST MEADOW,NY,PRIMARY,40.71,-73.55,NA-US-NY-EAST MEADOW,f,18646,32480,975121156,{}
11557,STANDARD,HEWLETT,NY,PRIMARY,40.64,-73.69,NA-US-NY-HEWLETT,f,4258,7435,325944377,{}
11558,STANDARD,ISLAND PARK,NY,PRIMARY,40.6,-73.64,NA-US-NY-ISLAND PARK,f,4135,6963,203095540,{}
11563,STANDARD,LYNBROOK,NY,PRIMARY,40.65,-73.67,NA-US-NY-LYNBROOK,f,11104,19016,606418035,{}
11580,STANDARD,VALLEY STREAM,NY,PRIMARY,40.66,-73.7,NA-US-NY-VALLEY STREAM,f,19599,33773,938178253,{}
11590,STANDARD,WESTBURY,NY,PRIMARY,40.75,-73.58,NA-US-NY-WESTBURY,f,22680,38259,1016567712,{}
11596,STANDARD,WILLISTON PARK,NY,PRIMARY,40.75,-73.64,NA-US-NY-WILLISTON PARK,f,5340,9478,376329181,{}
11598,STANDARD,WOODMERE,NY,PRIMARY,40.63,-73.72,NA-US-NY-WOODMERE,f,6084,11226,512861807,{}
11694,STANDARD,ROCKAWAY PARK,NY,PRIMARY,40.57,-73.85,NA-US-NY-ROCKAWAY PARK,f,8531,14148,474069089,{}
11695,PO BOX,FAR ROCKAWAY,NY,PRIMARY,40.59,-73.81,NA-US-NY-FAR ROCKAWAY,f,,,,{}
11702,STANDARD,BABYLON,NY,PRIMARY,40.69,-73.32,NA-US-NY-BABYLON,f,7592,12983,485337858,{}
11706,STANDARD,BAY SHORE,NY,PRIMARY,40.72,-73.25,NA-US-NY-BAY SHORE,f,29620,50386,1240782329,{}
11717,STANDARD,BRENTWOOD,NY,PRIMARY,40.78,-73.24,NA-US-NY-BRENTWOOD,f,28265,48090,850200013,{}
11720,STANDARD,CENTEREACH,NY,PRIMARY,40.87,-73.08,NA-US-NY-CENTEREACH,f,14109,25056,720516100,{}
11725,STANDARD,COMMACK,NY,PRIMARY,40.84,-73.28,NA-US-NY-COMMACK,f,14268,26411,902942727,{}
11726,STANDARD,COPIAGUE,NY,PRIMARY,40.67,-73.39,NA-US-NY-COPIAGUE,f,10282,17101,360442098,{}
11727,STANDARD,CORAM,NY,PRIMARY,40.87,-73,NA-US-NY-CORAM,f,13830,23345,655774813,{}
11731,STANDARD,EAST NORTHPORT,NY,PRIMARY,40.87,-73.32,NA-US-NY-EAST NORTHPORT,f,14607,26703,890243755,{}
11732,STANDARD,EAST NORWICH,NY,PRIMARY,40.84,-73.52,NA-US-NY-EAST NORWICH,f,1819,3168,131999395,{}
11747,STANDARD,MELVILLE,NY,PRIMARY,40.78,-73.41,NA-US-NY-MELVILLE,f,10302,18428,829646177,{}
11753,STANDARD,JERICHO,NY,PRIMARY,40.78,-73.54,NA-US-NY-JERICHO,f,6522,12072,639517144,{}
11755,STANDARD,LAKE GROVE,NY,PRIMARY,40.85,-73.11,NA-US-NY-LAKE GROVE,f,6013,10779,349174367,{}
11756,STANDARD,LEVITTOWN,NY,PRIMARY,40.72,-73.51,NA-US-NY-LEVITTOWN,f,21937,38330,1124504726,{}
11764,STANDARD,MILLER PLACE,NY,PRIMARY,40.93,-72.98,NA-US-NY-MILLER PLACE,f,6139,11529,416383173,{}
11765,STANDARD,MILL NECK,NY,PRIMARY,40.88,-73.55,NA-US-NY-MILL NECK,f,371,609,53923307,{}
11766,STANDARD,MOUNT SINAI,NY,PRIMARY,40.93,-73.01,NA-US-NY-MOUNT SINAI,f,5938,11102,415026632,{}
11767,STANDARD,NESCONSET,NY,PRIMARY,40.84,-73.15,NA-US-NY-NESCONSET,f,6931,12745,440034064,{}
11768,STANDARD,NORTHPORT,NY,PRIMARY,40.9,-73.34,NA-US-NY-NORTHPORT,f,10741,19381,881046940,{}
11779,STANDARD,RONKONKOMA,NY,PRIMARY,40.8,-73.12,NA-US-NY-RONKONKOMA,f,18735,32911,925411153,{}
11790,STANDARD,STONY BROOK,NY,PRIMARY,40.9,-73.12,NA-US-NY-STONY BROOK,f,7383,12887,495297036,{}
11794,UNIQUE,STONY BROOK,NY,PRIMARY,40.9,-73.12,NA-US-NY-STONY BROOK,f,,,,{}
11933,STANDARD,CALVERTON,NY,PRIMARY,40.92,-72.76,NA-US-NY-CALVERTON,f,3242,5527,138189454,{}
11934,STANDARD,CENTER MORICHES,NY,PRIMARY,40.79,-72.79,NA-US-NY-CENTER MORICHES,f,3631,6565,189221993,{}
11939,STANDARD,EAST MARION,NY,PRIMARY,41.12,-72.34,NA-US-NY-EAST MARION,f,549,907,20358522,{}
11952,STANDARD,MATTITUCK,NY,PRIMARY,41,-72.53,NA-US-NY-MATTITUCK,f,2558,4432,127162138,{}
11955,STANDARD,MORICHES,NY,PRIMARY,40.8,-72.82,NA-US-NY-MORICHES,f,1698,2780,70767286,{}
11956,PO BOX,NEW SUFFOLK,NY,PRIMARY,40.99,-72.48,NA-US-NY-NEW SUFFOLK,f,,,,{}
11959,PO BOX,QUOGUE,NY,PRIMARY,40.83,-72.6,NA-US-NY-QUOGUE,f,727,1209,69354688,{}
11967,STANDARD,SHIRLEY,NY,PRIMARY,40.79,-72.87,NA-US-NY-SHIRLEY,f,12029,21343,518786425,{}
11969,PO BOX,SOUTHAMPTON,NY,PRIMARY,40.88,-72.39,NA-US-NY-SOUTHAMPTON,f,1412,2230,52604023,{}
11971,STANDARD,SOUTHOLD,NY,PRIMARY,41.05,-72.42,NA-US-NY-SOUTHOLD,f,3191,5443,130173221,{}
11972,PO BOX,SPEONK,NY,PRIMARY,40.89,-72.42,NA-US-NY-SPEONK,f,486,834,19114157,{}
11975,PO BOX,WAINSCOTT,NY,PRIMARY,40.98,-72.18,NA-US-NY-WAINSCOTT,f,651,1053,33604787,{}
12016,PO BOX,AURIESVILLE,NY,PRIMARY,42.87,-74.35,NA-US-NY-AURIESVILLE,f,,,,{}
96541,MILITARY,APO,AP,PRIMARY,,,NA-US-,f,,,,{}
12033,STANDARD,CASTLETON ON HUDSON,NY,PRIMARY,42.53,-73.7,NA-US-NY-CASTLETON ON HUDSON,f,3971,6953,182790908,{227983}
12037,STANDARD,CHATHAM,NY,PRIMARY,42.36,-73.59,NA-US-NY-CHATHAM,f,1811,3004,61165887,{228067}
12040,PO BOX,CHERRY PLAIN,NY,PRIMARY,42.66,-73.37,NA-US-NY-CHERRY PLAIN,f,,,,{}
12047,STANDARD,COHOES,NY,PRIMARY,42.77,-73.7,NA-US-NY-COHOES,f,9568,15353,339693561,{}
12057,STANDARD,EAGLE BRIDGE,NY,PRIMARY,42.94,-73.39,NA-US-NY-EAGLE BRIDGE,f,800,1434,25427995,{}
12065,STANDARD,CLIFTON PARK,NY,PRIMARY,42.85,-73.8,NA-US-NY-CLIFTON PARK,f,21459,37357,1132081501,{}
12089,PO BOX,HOOSICK,NY,PRIMARY,42.88,-73.34,NA-US-NY-HOOSICK,f,,,,{}
12093,STANDARD,JEFFERSON,NY,PRIMARY,42.48,-74.61,NA-US-NY-JEFFERSON,f,670,1210,20897995,{228477}
12110,STANDARD,LATHAM,NY,PRIMARY,42.74,-73.74,NA-US-NY-LATHAM,f,10212,17260,463248183,{}
12123,STANDARD,NASSAU,NY,PRIMARY,42.51,-73.61,NA-US-NY-NASSAU,f,2573,4397,109209650,{}
12130,STANDARD,NIVERVILLE,NY,PRIMARY,42.44,-73.64,NA-US-NY-NIVERVILLE,f,590,995,20184359,{}
12141,PO BOX,QUAKER STREET,NY,PRIMARY,42.77,-74.16,NA-US-NY-QUAKER STREET,f,,,,{}
12147,STANDARD,RENSSELAERVILLE,NY,PRIMARY,42.51,-74.15,NA-US-NY-RENSSELAERVILLE,f,303,513,10881138,{}
12157,STANDARD,SCHOHARIE,NY,PRIMARY,42.66,-74.31,NA-US-NY-SCHOHARIE,f,1937,3363,68351657,{}
12161,PO BOX,SOUTH BETHLEHEM,NY,PRIMARY,42.61,-73.84,NA-US-NY-SOUTH BETHLEHEM,f,,,,{}
12165,STANDARD,SPENCERTOWN,NY,PRIMARY,42.3,-73.49,NA-US-NY-SPENCERTOWN,f,,,,{}
12182,STANDARD,TROY,NY,PRIMARY,42.73,-73.67,NA-US-NY-TROY,f,7105,11529,233926132,{}
12183,STANDARD,TROY,NY,PRIMARY,42.73,-73.67,NA-US-NY-TROY,f,1457,2200,45422187,{}
12190,STANDARD,WELLS,NY,PRIMARY,43.39,-74.29,NA-US-NY-WELLS,f,352,618,10382502,{}
12194,STANDARD,WEST FULTON,NY,PRIMARY,42.53,-74.45,NA-US-NY-WEST FULTON,f,,,,{}
12201,PO BOX,ALBANY,NY,PRIMARY,42.66,-73.79,NA-US-NY-ALBANY,f,432,655,14239754,{}
12208,STANDARD,ALBANY,NY,PRIMARY,42.66,-73.79,NA-US-NY-ALBANY,f,9914,14663,383193916,{}
12210,STANDARD,ALBANY,NY,PRIMARY,42.66,-73.79,NA-US-NY-ALBANY,f,4566,6363,128871903,{}
12222,UNIQUE,ALBANY,NY,PRIMARY,42.66,-73.79,NA-US-NY-ALBANY,f,,,,{}
12227,UNIQUE,ALBANY,NY,PRIMARY,42.66,-73.79,NA-US-NY-ALBANY,f,,,,{}
12234,UNIQUE,ALBANY,NY,PRIMARY,42.66,-73.79,NA-US-NY-ALBANY,f,,,,{}
12236,UNIQUE,ALBANY,NY,PRIMARY,42.66,-73.79,NA-US-NY-ALBANY,f,,,,{}
12240,UNIQUE,ALBANY,NY,PRIMARY,42.66,-73.79,NA-US-NY-ALBANY,f,,,,{}
12241,UNIQUE,ALBANY,NY,PRIMARY,42.66,-73.79,NA-US-NY-ALBANY,f,,,,{}
12248,UNIQUE,ALBANY,NY,PRIMARY,42.66,-73.79,NA-US-NY-ALBANY,f,,,,{}
12256,UNIQUE,ALBANY,NY,PRIMARY,42.66,-73.79,NA-US-NY-ALBANY,f,,,,{}
12345,UNIQUE,SCHENECTADY,NY,PRIMARY,42.8,-73.92,NA-US-NY-SCHENECTADY,f,,,,{}
12402,PO BOX,KINGSTON,NY,PRIMARY,41.93,-73.99,NA-US-NY-KINGSTON,f,953,1439,29598749,{}
12410,STANDARD,BIG INDIAN,NY,PRIMARY,42.07,-74.44,NA-US-NY-BIG INDIAN,f,,,,{}
12419,STANDARD,COTTEKILL,NY,PRIMARY,41.84,-74.1,NA-US-NY-COTTEKILL,f,359,621,15570267,{}
12420,PO BOX,CRAGSMOOR,NY,PRIMARY,41.68,-74.41,NA-US-NY-CRAGSMOOR,f,,,,{}
12429,PO BOX,ESOPUS,NY,PRIMARY,41.8,-73.96,NA-US-NY-ESOPUS,f,,,,{}
12431,STANDARD,FREEHOLD,NY,PRIMARY,42.38,-74.06,NA-US-NY-FREEHOLD,f,683,1188,23087267,{}
12436,PO BOX,HAINES FALLS,NY,PRIMARY,42.2,-74.09,NA-US-NY-HAINES FALLS,f,,,,{}
12453,PO BOX,MALDEN ON HUDSON,NY,PRIMARY,42.1,-73.93,NA-US-NY-MALDEN ON HUDSON,f,,,,{}
12458,STANDARD,NAPANOCH,NY,PRIMARY,41.75,-74.37,NA-US-NY-NAPANOCH,f,1117,1907,33887722,{}
12463,STANDARD,PALENVILLE,NY,PRIMARY,42.17,-74.01,NA-US-NY-PALENVILLE,f,735,1231,27020526,{}
12468,STANDARD,PRATTSVILLE,NY,PRIMARY,42.31,-74.43,NA-US-NY-PRATTSVILLE,f,513,881,14590558,{}
12483,PO BOX,SPRING GLEN,NY,PRIMARY,41.66,-74.42,NA-US-NY-SPRING GLEN,f,,,,{}
12486,STANDARD,TILLSON,NY,PRIMARY,41.83,-74.06,NA-US-NY-TILLSON,f,775,1336,33541139,{}
12492,STANDARD,WEST KILL,NY,PRIMARY,42.18,-74.34,NA-US-NY-WEST KILL,f,,,,{}
12493,PO BOX,WEST PARK,NY,PRIMARY,41.78,-73.96,NA-US-NY-WEST PARK,f,,,,{}
12506,PO BOX,BANGALL,NY,PRIMARY,41.87,-73.69,NA-US-NY-BANGALL,f,,,,{}
12510,PO BOX,BILLINGS,NY,PRIMARY,41.67,-73.8,NA-US-NY-BILLINGS,f,,,,{}
12513,STANDARD,CLAVERACK,NY,PRIMARY,42.22,-73.72,NA-US-NY-CLAVERACK,f,670,1083,24568625,{}
12514,STANDARD,CLINTON CORNERS,NY,PRIMARY,41.87,-73.76,NA-US-NY-CLINTON CORNERS,f,1340,2470,69963048,{}
12516,STANDARD,COPAKE,NY,PRIMARY,42.1,-73.55,NA-US-NY-COPAKE,f,799,1346,25562526,{}
12522,STANDARD,DOVER PLAINS,NY,PRIMARY,41.74,-73.58,NA-US-NY-DOVER PLAINS,f,2328,4008,85699304,{}
12524,STANDARD,FISHKILL,NY,PRIMARY,41.53,-73.89,NA-US-NY-FISHKILL,f,7164,12215,367819955,{}
12525,STANDARD,GARDINER,NY,PRIMARY,41.68,-74.18,NA-US-NY-GARDINER,f,1784,3067,82457095,{}
12541,PO BOX,LIVINGSTON,NY,PRIMARY,42.13,-73.76,NA-US-NY-LIVINGSTON,f,,,,{}
12547,STANDARD,MILTON,NY,PRIMARY,41.65,-73.96,NA-US-NY-MILTON,f,1330,2371,62449345,{}
12549,STANDARD,MONTGOMERY,NY,PRIMARY,41.52,-74.23,NA-US-NY-MONTGOMERY,f,4785,8716,246342566,{}
12574,PO BOX,RHINECLIFF,NY,PRIMARY,41.92,-73.9,NA-US-NY-RHINECLIFF,f,,,,{}
12584,PO BOX,VAILS GATE,NY,PRIMARY,41.45,-74.05,NA-US-NY-VAILS GATE,f,266,427,8135939,{}
12719,STANDARD,BARRYVILLE,NY,PRIMARY,41.47,-74.91,NA-US-NY-BARRYVILLE,f,444,741,14368598,{}
12724,PO BOX,CALLICOON CENTER,NY,PRIMARY,41.83,-74.94,NA-US-NY-CALLICOON CENTER,f,,,,{}
12729,STANDARD,CUDDEBACKVILLE,NY,PRIMARY,41.47,-74.63,NA-US-NY-CUDDEBACKVILLE,f,846,1473,31366520,{}
12733,STANDARD,FALLSBURG,NY,PRIMARY,41.73,-74.6,NA-US-NY-FALLSBURG,f,,,,{}
12552,PO BOX,NEWBURGH,NY,PRIMARY,41.5,-74.02,NA-US-NY-NEWBURGH,f,,,,{}
12736,STANDARD,FREMONT CENTER,NY,PRIMARY,41.84,-75.04,NA-US-NY-FREMONT CENTER,f,,,,{}
12738,STANDARD,GLEN WILD,NY,PRIMARY,41.65,-74.58,NA-US-NY-GLEN WILD,f,,,,{}
12746,STANDARD,HUGUENOT,NY,PRIMARY,41.41,-74.63,NA-US-NY-HUGUENOT,f,601,1041,22549198,{}
12748,STANDARD,JEFFERSONVILLE,NY,PRIMARY,41.78,-74.93,NA-US-NY-JEFFERSONVILLE,f,957,1629,32925090,{}
12750,STANDARD,KENOZA LAKE,NY,PRIMARY,41.73,-74.95,NA-US-NY-KENOZA LAKE,f,,,,{}
12751,STANDARD,KIAMESHA LAKE,NY,PRIMARY,41.68,-74.66,NA-US-NY-KIAMESHA LAKE,f,398,719,11014416,{}
12754,STANDARD,LIBERTY,NY,PRIMARY,41.8,-74.74,NA-US-NY-LIBERTY,f,2798,4684,89557880,{}
12759,STANDARD,LOCH SHELDRAKE,NY,PRIMARY,41.77,-74.65,NA-US-NY-LOCH SHELDRAKE,f,616,1080,16822706,{}
12762,STANDARD,MONGAUP VALLEY,NY,PRIMARY,41.66,-74.78,NA-US-NY-MONGAUP VALLEY,f,275,460,8417447,{}
12763,STANDARD,MOUNTAIN DALE,NY,PRIMARY,41.68,-74.53,NA-US-NY-MOUNTAIN DALE,f,388,666,12843949,{}
12765,STANDARD,NEVERSINK,NY,PRIMARY,41.84,-74.61,NA-US-NY-NEVERSINK,f,454,818,18716268,{}
12775,STANDARD,ROCK HILL,NY,PRIMARY,41.62,-74.59,NA-US-NY-ROCK HILL,f,1213,2162,58503940,{}
12779,STANDARD,SOUTH FALLSBURG,NY,PRIMARY,41.71,-74.63,NA-US-NY-SOUTH FALLSBURG,f,908,1551,26310104,{}
12780,STANDARD,SPARROW BUSH,NY,PRIMARY,41.44,-74.72,NA-US-NY-SPARROW BUSH,f,1122,2008,43305900,{}
12819,STANDARD,CLEMONS,NY,PRIMARY,43.63,-73.43,NA-US-NY-CLEMONS,f,,,,{}
12823,STANDARD,COSSAYUNA,NY,PRIMARY,43.17,-73.4,NA-US-NY-COSSAYUNA,f,,,,{}
12844,STANDARD,KATTSKILL BAY,NY,PRIMARY,43.51,-73.62,NA-US-NY-KATTSKILL BAY,f,,,,{}
12845,STANDARD,LAKE GEORGE,NY,PRIMARY,43.42,-73.71,NA-US-NY-LAKE GEORGE,f,2650,4377,89166137,{}
12846,STANDARD,LAKE LUZERNE,NY,PRIMARY,43.32,-73.8,NA-US-NY-LAKE LUZERNE,f,1655,2848,47085208,{}
12858,STANDARD,PARADOX,NY,PRIMARY,43.9,-73.63,NA-US-NY-PARADOX,f,,,,{234742}
12859,STANDARD,PORTER CORNERS,NY,PRIMARY,43.14,-73.88,NA-US-NY-PORTER CORNERS,f,1005,1819,39557610,{}
12862,PO BOX,RIPARIUS,NY,PRIMARY,43.73,-73.55,NA-US-NY-RIPARIUS,f,,,,{}
12866,STANDARD,SARATOGA SPRINGS,NY,PRIMARY,43.06,-73.77,NA-US-NY-SARATOGA SPRINGS,f,18183,29758,1017783648,{}
12879,STANDARD,NEWCOMB,NY,PRIMARY,43.97,-74.17,NA-US-NY-NEWCOMB,f,,,,{}
12912,STANDARD,AU SABLE FORKS,NY,PRIMARY,44.47,-73.78,NA-US-NY-AU SABLE FORKS,f,1018,1778,27676539,{}
9817,MILITARY,DPO,AE,PRIMARY,,,NA-US-,f,,,,{}
12913,STANDARD,BLOOMINGDALE,NY,PRIMARY,44.42,-74.1,NA-US-NY-BLOOMINGDALE,f,528,931,17546271,{}
12921,STANDARD,CHAZY,NY,PRIMARY,44.88,-73.43,NA-US-NY-CHAZY,f,1197,2125,49678943,{}
12926,STANDARD,CONSTABLE,NY,PRIMARY,44.93,-74.28,NA-US-NY-CONSTABLE,f,926,1653,26221080,{}
12932,STANDARD,ELIZABETHTOWN,NY,PRIMARY,44.22,-73.6,NA-US-NY-ELIZABETHTOWN,f,651,1086,17788915,{}
12952,STANDARD,LYON MOUNTAIN,NY,PRIMARY,44.72,-73.92,NA-US-NY-LYON MOUNTAIN,f,277,468,7502712,{}
12955,STANDARD,LYON MOUNTAIN,NY,PRIMARY,44.72,-73.92,NA-US-NY-LYON MOUNTAIN,f,,,,{}
12960,STANDARD,MORIAH,NY,PRIMARY,44.05,-73.5,NA-US-NY-MORIAH,f,502,905,17331088,{}
12969,STANDARD,OWLS HEAD,NY,PRIMARY,44.71,-74.08,NA-US-NY-OWLS HEAD,f,,,,{}
12976,PO BOX,RAINBOW LAKE,NY,PRIMARY,44.47,-74.17,NA-US-NY-RAINBOW LAKE,f,,,,{}
13401,PO BOX,MC CONNELLSVILLE,NY,PRIMARY,43.27,-75.69,NA-US-NY-MC CONNELLSVILLE,f,,,,{}
12986,STANDARD,TUPPER LAKE,NY,PRIMARY,44.23,-74.46,NA-US-NY-TUPPER LAKE,f,2832,4768,93338346,{}
12997,STANDARD,WILMINGTON,NY,PRIMARY,44.38,-73.82,NA-US-NY-WILMINGTON,f,575,1005,15622948,{}
13024,UNIQUE,AUBURN,NY,PRIMARY,42.93,-76.56,NA-US-NY-AUBURN,f,,,,{235659}
13032,STANDARD,CANASTOTA,NY,PRIMARY,43.08,-75.75,NA-US-NY-CANASTOTA,f,5950,10386,199644445,{235694}
13037,STANDARD,CHITTENANGO,NY,PRIMARY,43.04,-75.87,NA-US-NY-CHITTENANGO,f,4286,7640,165223974,{}
13045,STANDARD,CORTLAND,NY,PRIMARY,42.6,-76.18,NA-US-NY-CORTLAND,f,11579,19439,385519495,{}
13051,PO BOX,DELPHI FALLS,NY,PRIMARY,42.87,-75.91,NA-US-NY-DELPHI FALLS,f,,,,{}
13071,STANDARD,GENOA,NY,PRIMARY,42.66,-76.53,NA-US-NY-GENOA,f,505,897,15592020,{}
13077,STANDARD,HOMER,NY,PRIMARY,42.63,-76.18,NA-US-NY-HOMER,f,3187,5647,117450411,{}
13090,STANDARD,LIVERPOOL,NY,PRIMARY,43.1,-76.21,NA-US-NY-LIVERPOOL,f,15076,26337,669746981,{}
13104,STANDARD,MANLIUS,NY,PRIMARY,43,-75.97,NA-US-NY-MANLIUS,f,7629,14081,532753376,{}
13107,PO BOX,MAPLE VIEW,NY,PRIMARY,43.45,-76.15,NA-US-NY-MAPLE VIEW,f,,,,{}
13110,STANDARD,MARIETTA,NY,PRIMARY,42.9,-76.32,NA-US-NY-MARIETTA,f,1164,2062,45428230,{}
13118,STANDARD,MORAVIA,NY,PRIMARY,42.71,-76.42,NA-US-NY-MORAVIA,f,2504,4404,81414439,{}
13120,STANDARD,NEDROW,NY,PRIMARY,42.97,-76.14,NA-US-NY-NEDROW,f,1085,1890,33859298,{}
13121,PO BOX,NEW HAVEN,NY,PRIMARY,43.46,-76.31,NA-US-NY-NEW HAVEN,f,,,,{}
13124,STANDARD,NORTH PITCHER,NY,PRIMARY,42.65,-75.81,NA-US-NY-NORTH PITCHER,f,,,,{}
13132,STANDARD,PENNELLVILLE,NY,PRIMARY,43.26,-76.24,NA-US-NY-PENNELLVILLE,f,1968,3516,72968697,{}
13139,PO BOX,POPLAR RIDGE,NY,PRIMARY,42.73,-76.61,NA-US-NY-POPLAR RIDGE,f,,,,{}
13145,STANDARD,SANDY CREEK,NY,PRIMARY,43.64,-76.08,NA-US-NY-SANDY CREEK,f,839,1493,26033539,{}
13155,STANDARD,SOUTH OTSELIC,NY,PRIMARY,42.65,-75.78,NA-US-NY-SOUTH OTSELIC,f,274,505,7121523,{}
13156,STANDARD,STERLING,NY,PRIMARY,43.32,-76.64,NA-US-NY-STERLING,f,792,1413,26606933,{}
13160,STANDARD,UNION SPRINGS,NY,PRIMARY,42.84,-76.69,NA-US-NY-UNION SPRINGS,f,970,1726,32310829,{}
13163,PO BOX,WAMPSVILLE,NY,PRIMARY,43.07,-75.7,NA-US-NY-WAMPSVILLE,f,256,422,8070737,{}
13166,STANDARD,WEEDSPORT,NY,PRIMARY,43.04,-76.56,NA-US-NY-WEEDSPORT,f,2676,4703,92707251,{}
13201,PO BOX,SYRACUSE,NY,PRIMARY,43.04,-76.14,NA-US-NY-SYRACUSE,f,,,,{}
13202,STANDARD,SYRACUSE,NY,PRIMARY,43.04,-76.14,NA-US-NY-SYRACUSE,f,1676,2520,41928158,{}
13204,STANDARD,SYRACUSE,NY,PRIMARY,43.04,-76.14,NA-US-NY-SYRACUSE,f,7788,12137,180571623,{}
13209,STANDARD,SYRACUSE,NY,PRIMARY,43.04,-76.14,NA-US-NY-SYRACUSE,f,6817,11191,214056205,{}
13214,STANDARD,SYRACUSE,NY,PRIMARY,43.04,-76.14,NA-US-NY-SYRACUSE,f,3844,6484,149269194,{}
13215,STANDARD,SYRACUSE,NY,PRIMARY,43.04,-76.14,NA-US-NY-SYRACUSE,f,7148,12897,371420443,{}
13217,PO BOX,SYRACUSE,NY,PRIMARY,43.04,-76.14,NA-US-NY-SYRACUSE,f,,,,{}
13220,PO BOX,SYRACUSE,NY,PRIMARY,43.04,-76.14,NA-US-NY-SYRACUSE,f,331,485,11554210,{}
13244,UNIQUE,SYRACUSE,NY,PRIMARY,43.04,-76.14,NA-US-NY-SYRACUSE,f,,,,{}
13305,PO BOX,BEAVER FALLS,NY,PRIMARY,43.87,-75.44,NA-US-NY-BEAVER FALLS,f,,,,{}
13318,STANDARD,CASSVILLE,NY,PRIMARY,42.94,-75.25,NA-US-NY-CASSVILLE,f,567,1047,18883382,{}
13323,STANDARD,CLINTON,NY,PRIMARY,43.04,-75.37,NA-US-NY-CLINTON,f,4755,8049,200245435,{}
13326,STANDARD,COOPERSTOWN,NY,PRIMARY,42.7,-74.92,NA-US-NY-COOPERSTOWN,f,2722,4529,110807575,{}
13333,STANDARD,EAST SPRINGFIELD,NY,PRIMARY,42.83,-74.8,NA-US-NY-EAST SPRINGFIELD,f,,,,{}
13335,STANDARD,EDMESTON,NY,PRIMARY,42.69,-75.24,NA-US-NY-EDMESTON,f,703,1249,20811427,{}
13337,STANDARD,FLY CREEK,NY,PRIMARY,42.71,-74.98,NA-US-NY-FLY CREEK,f,418,741,18943072,{}
13339,STANDARD,FORT PLAIN,NY,PRIMARY,42.93,-74.62,NA-US-NY-FORT PLAIN,f,2721,4853,73972434,{}
13343,STANDARD,GLENFIELD,NY,PRIMARY,43.72,-75.26,NA-US-NY-GLENFIELD,f,776,1373,23123149,{}
13345,STANDARD,GREIG,NY,PRIMARY,43.68,-75.31,NA-US-NY-GREIG,f,,,,{}
13354,STANDARD,HOLLAND PATENT,NY,PRIMARY,43.24,-75.25,NA-US-NY-HOLLAND PATENT,f,1576,2857,56416639,{}
13402,STANDARD,MADISON,NY,PRIMARY,42.89,-75.51,NA-US-NY-MADISON,f,687,1191,19610781,{}
13403,STANDARD,MARCY,NY,PRIMARY,43.17,-75.29,NA-US-NY-MARCY,f,2168,3831,90755926,{}
13417,STANDARD,NEW YORK MILLS,NY,PRIMARY,43.1,-75.29,NA-US-NY-NEW YORK MILLS,f,1744,2653,51117593,{}
13425,STANDARD,ORISKANY FALLS,NY,PRIMARY,42.93,-75.46,NA-US-NY-ORISKANY FALLS,f,873,1497,26468708,{}
13437,STANDARD,REDFIELD,NY,PRIMARY,43.59,-75.81,NA-US-NY-REDFIELD,f,,,,{}
13439,STANDARD,RICHFIELD SPRINGS,NY,PRIMARY,42.85,-74.98,NA-US-NY-RICHFIELD SPRINGS,f,1828,3180,48960238,{}
13442,PO BOX,ROME,NY,PRIMARY,43.21,-75.47,NA-US-NY-ROME,f,627,936,18582419,{}
13459,STANDARD,SHARON SPRINGS,NY,PRIMARY,42.79,-74.61,NA-US-NY-SHARON SPRINGS,f,979,1759,27576628,{}
13469,STANDARD,STITTVILLE,NY,PRIMARY,43.22,-75.28,NA-US-NY-STITTVILLE,f,363,656,15400426,{}
13480,STANDARD,WATERVILLE,NY,PRIMARY,42.93,-75.38,NA-US-NY-WATERVILLE,f,1551,2737,52443738,{}
13491,STANDARD,WEST WINFIELD,NY,PRIMARY,42.88,-75.19,NA-US-NY-WEST WINFIELD,f,1664,2989,52730992,{}
13492,STANDARD,WHITESBORO,NY,PRIMARY,43.12,-75.29,NA-US-NY-WHITESBORO,f,5994,10302,228935597,{}
13501,STANDARD,UTICA,NY,PRIMARY,43.1,-75.23,NA-US-NY-UTICA,f,15003,24772,376399539,{}
13502,STANDARD,UTICA,NY,PRIMARY,43.1,-75.23,NA-US-NY-UTICA,f,14425,23498,406652866,{}
13505,PO BOX,UTICA,NY,PRIMARY,43.1,-75.23,NA-US-NY-UTICA,f,,,,{}
13599,UNIQUE,UTICA,NY,PRIMARY,43.1,-75.23,NA-US-NY-UTICA,f,,,,{}
13612,STANDARD,BLACK RIVER,NY,PRIMARY,44,-75.79,NA-US-NY-BLACK RIVER,f,1277,2343,43887333,{}
13614,STANDARD,BRIER HILL,NY,PRIMARY,44.54,-75.68,NA-US-NY-BRIER HILL,f,,,,{}
13619,STANDARD,CARTHAGE,NY,PRIMARY,43.98,-75.6,NA-US-NY-CARTHAGE,f,4331,7939,136713397,{}
13637,STANDARD,EVANS MILLS,NY,PRIMARY,44.08,-75.8,NA-US-NY-EVANS MILLS,f,1696,3206,52241192,{}
13641,PO BOX,FISHERS LANDING,NY,PRIMARY,44.32,-75.97,NA-US-NY-FISHERS LANDING,f,,,,{}
13648,STANDARD,HARRISVILLE,NY,PRIMARY,44.15,-75.32,NA-US-NY-HARRISVILLE,f,989,1831,32105522,{}
13650,STANDARD,HENDERSON,NY,PRIMARY,43.8,-76.19,NA-US-NY-HENDERSON,f,558,993,16071137,{}
13654,STANDARD,HEUVELTON,NY,PRIMARY,44.61,-75.4,NA-US-NY-HEUVELTON,f,887,1560,26590014,{}
13656,STANDARD,LA FARGEVILLE,NY,PRIMARY,44.18,-75.95,NA-US-NY-LA FARGEVILLE,f,1130,2118,34601571,{}
13658,STANDARD,LISBON,NY,PRIMARY,44.72,-75.26,NA-US-NY-LISBON,f,1063,1950,35139612,{}
13660,STANDARD,MADRID,NY,PRIMARY,44.75,-75.15,NA-US-NY-MADRID,f,819,1536,26818771,{}
13662,STANDARD,MASSENA,NY,PRIMARY,44.92,-74.89,NA-US-NY-MASSENA,f,7524,12957,235430483,{}
13677,PO BOX,PYRITES,NY,PRIMARY,44.49,-75.18,NA-US-NY-PYRITES,f,,,,{}
13684,STANDARD,RUSSELL,NY,PRIMARY,44.36,-75.04,NA-US-NY-RUSSELL,f,473,879,14919286,{}
13694,STANDARD,WADDINGTON,NY,PRIMARY,44.85,-75.19,NA-US-NY-WADDINGTON,f,714,1255,23963864,{}
13695,PO BOX,WANAKENA,NY,PRIMARY,44.13,-74.92,NA-US-NY-WANAKENA,f,,,,{}
13733,STANDARD,BAINBRIDGE,NY,PRIMARY,42.29,-75.48,NA-US-NY-BAINBRIDGE,f,2377,4218,73013301,{}
13744,STANDARD,CASTLE CREEK,NY,PRIMARY,42.22,-75.91,NA-US-NY-CASTLE CREEK,f,573,1008,18508243,{}
13746,STANDARD,CHENANGO FORKS,NY,PRIMARY,42.23,-75.84,NA-US-NY-CHENANGO FORKS,f,1285,2348,44362448,{}
13747,PO BOX,COLLIERSVILLE,NY,PRIMARY,42.49,-74.98,NA-US-NY-COLLIERSVILLE,f,,,,{}
13761,PO BOX,ENDICOTT,NY,PRIMARY,42.09,-76.05,NA-US-NY-ENDICOTT,f,,,,{}
13762,PO BOX,ENDWELL,NY,PRIMARY,42.11,-76.02,NA-US-NY-ENDWELL,f,,,,{}
13780,STANDARD,GUILFORD,NY,PRIMARY,42.4,-75.49,NA-US-NY-GUILFORD,f,482,869,14869773,{}
13782,STANDARD,HAMDEN,NY,PRIMARY,42.19,-74.99,NA-US-NY-HAMDEN,f,336,577,8673417,{}
13784,PO BOX,HARFORD,NY,PRIMARY,42.42,-76.22,NA-US-NY-HARFORD,f,,,,{}
13801,STANDARD,MC DONOUGH,NY,PRIMARY,42.49,-75.76,NA-US-NY-MC DONOUGH,f,507,916,12987476,{}
13802,STANDARD,MAINE,NY,PRIMARY,42.19,-76.06,NA-US-NY-MAINE,f,490,869,16575004,{}
13806,STANDARD,MERIDALE,NY,PRIMARY,42.36,-74.95,NA-US-NY-MERIDALE,f,,,,{}
13808,STANDARD,MORRIS,NY,PRIMARY,42.54,-75.24,NA-US-NY-MORRIS,f,790,1411,23193396,{}
13814,PO BOX,NORTH NORWICH,NY,PRIMARY,42.61,-75.53,NA-US-NY-NORTH NORWICH,f,,,,{}
13820,STANDARD,ONEONTA,NY,PRIMARY,42.45,-75.06,NA-US-NY-ONEONTA,f,7979,13019,251677552,{}
13842,STANDARD,SOUTH KORTRIGHT,NY,PRIMARY,42.37,-74.72,NA-US-NY-SOUTH KORTRIGHT,f,,,,{}
13848,PO BOX,TUNNEL,NY,PRIMARY,42.21,-75.72,NA-US-NY-TUNNEL,f,,,,{}
13859,STANDARD,WELLS BRIDGE,NY,PRIMARY,42.36,-75.24,NA-US-NY-WELLS BRIDGE,f,,,,{}
13864,STANDARD,WILLSEYVILLE,NY,PRIMARY,42.29,-76.37,NA-US-NY-WILLSEYVILLE,f,521,883,16398179,{}
14001,STANDARD,AKRON,NY,PRIMARY,43.01,-78.49,NA-US-NY-AKRON,f,4753,8276,167959982,{}
14021,PO BOX,BATAVIA,NY,PRIMARY,42.99,-78.18,NA-US-NY-BATAVIA,f,,,,{}
14028,STANDARD,BURT,NY,PRIMARY,43.31,-78.71,NA-US-NY-BURT,f,728,1315,25700435,{}
14032,STANDARD,CLARENCE CENTER,NY,PRIMARY,43,-78.63,NA-US-NY-CLARENCE CENTER,f,3566,6906,217101920,{}
14038,PO BOX,CRITTENDEN,NY,PRIMARY,43.02,-78.51,NA-US-NY-CRITTENDEN,f,,,,{}
14052,STANDARD,EAST AURORA,NY,PRIMARY,42.76,-78.61,NA-US-NY-EAST AURORA,f,8795,15612,403786979,{}
14054,STANDARD,EAST BETHANY,NY,PRIMARY,42.91,-78.13,NA-US-NY-EAST BETHANY,f,650,1165,23799449,{}
14055,STANDARD,EAST CONCORD,NY,PRIMARY,42.55,-78.6,NA-US-NY-EAST CONCORD,f,704,1229,26512471,{}
14060,STANDARD,FARMERSVILLE STATION,NY,PRIMARY,42.44,-78.29,NA-US-NY-FARMERSVILLE STATION,f,,,,{}
14063,STANDARD,FREDONIA,NY,PRIMARY,42.44,-79.33,NA-US-NY-FREDONIA,f,5430,9209,189231172,{}
14070,STANDARD,GOWANDA,NY,PRIMARY,42.46,-78.93,NA-US-NY-GOWANDA,f,2395,4008,68311228,{}
14081,STANDARD,IRVING,NY,PRIMARY,42.56,-79.04,NA-US-NY-IRVING,f,1246,2123,37574531,{}
14098,STANDARD,LYNDONVILLE,NY,PRIMARY,43.32,-78.38,NA-US-NY-LYNDONVILLE,f,1394,2495,42093472,{}
14101,STANDARD,MACHIAS,NY,PRIMARY,42.38,-78.52,NA-US-NY-MACHIAS,f,826,1467,24371519,{}
14102,STANDARD,MARILLA,NY,PRIMARY,42.83,-78.55,NA-US-NY-MARILLA,f,650,1173,26703919,{}
14108,STANDARD,NEWFANE,NY,PRIMARY,43.28,-78.69,NA-US-NY-NEWFANE,f,2768,4926,93392656,{}
14125,STANDARD,OAKFIELD,NY,PRIMARY,43.06,-78.27,NA-US-NY-OAKFIELD,f,1804,3241,57254467,{}
14170,STANDARD,WEST FALLS,NY,PRIMARY,42.7,-78.67,NA-US-NY-WEST FALLS,f,1234,2168,52472820,{}
14204,STANDARD,BUFFALO,NY,PRIMARY,42.88,-78.85,NA-US-NY-BUFFALO,f,3294,5302,73479105,{}
14209,STANDARD,BUFFALO,NY,PRIMARY,42.88,-78.85,NA-US-NY-BUFFALO,f,3531,4984,115731813,{}
14212,STANDARD,BUFFALO,NY,PRIMARY,42.88,-78.85,NA-US-NY-BUFFALO,f,4060,6607,89392718,{}
14216,STANDARD,BUFFALO,NY,PRIMARY,42.88,-78.85,NA-US-NY-BUFFALO,f,11245,17262,392248246,{}
14228,STANDARD,BUFFALO,NY,PRIMARY,42.88,-78.85,NA-US-NY-BUFFALO,f,9066,14965,356859652,{}
14233,UNIQUE,BUFFALO,NY,PRIMARY,42.88,-78.85,NA-US-NY-BUFFALO,f,,,,{}
14261,UNIQUE,BUFFALO,NY,PRIMARY,42.88,-78.85,NA-US-NY-BUFFALO,f,,,,{}
14265,UNIQUE,BUFFALO,NY,PRIMARY,42.88,-78.85,NA-US-NY-BUFFALO,f,,,,{}
14267,UNIQUE,BUFFALO,NY,PRIMARY,42.88,-78.85,NA-US-NY-BUFFALO,f,,,,{}
14269,UNIQUE,BUFFALO,NY,PRIMARY,42.88,-78.85,NA-US-NY-BUFFALO,f,,,,{}
14303,STANDARD,NIAGARA FALLS,NY,PRIMARY,43.09,-79.01,NA-US-NY-NIAGARA FALLS,f,2522,3890,52031857,{}
14429,PO BOX,CLARENDON,NY,PRIMARY,43.17,-78.05,NA-US-NY-CLARENDON,f,,,,{}
14445,STANDARD,EAST ROCHESTER,NY,PRIMARY,43.11,-77.48,NA-US-NY-EAST ROCHESTER,f,4049,6390,124779591,{}
14452,PO BOX,FANCHER,NY,PRIMARY,43.25,-78.05,NA-US-NY-FANCHER,f,,,,{}
14464,STANDARD,HAMLIN,NY,PRIMARY,43.32,-77.93,NA-US-NY-HAMLIN,f,3471,6229,120841707,{}
14467,STANDARD,HENRIETTA,NY,PRIMARY,43.04,-77.61,NA-US-NY-HENRIETTA,f,4735,8141,184372469,{}
14470,STANDARD,HOLLEY,NY,PRIMARY,43.22,-78.02,NA-US-NY-HOLLEY,f,3759,6664,121212664,{}
14476,STANDARD,KENDALL,NY,PRIMARY,43.32,-78.03,NA-US-NY-KENDALL,f,1054,1905,35098051,{}
14481,STANDARD,LEICESTER,NY,PRIMARY,42.77,-77.89,NA-US-NY-LEICESTER,f,953,1647,31095144,{}
14485,STANDARD,LIMA,NY,PRIMARY,42.9,-77.61,NA-US-NY-LIMA,f,2036,3549,73880719,{}
14487,STANDARD,LIVONIA,NY,PRIMARY,42.82,-77.66,NA-US-NY-LIVONIA,f,2832,5126,115321204,{}
14506,STANDARD,MENDON,NY,PRIMARY,42.99,-77.49,NA-US-NY-MENDON,f,671,1262,40628692,{}
14514,STANDARD,NORTH CHILI,NY,PRIMARY,43.11,-77.8,NA-US-NY-NORTH CHILI,f,2727,4933,112747809,{}
14520,PO BOX,ONTARIO CENTER,NY,PRIMARY,43.24,-77.31,NA-US-NY-ONTARIO CENTER,f,,,,{}
14529,PO BOX,PERKINSVILLE,NY,PRIMARY,42.53,-77.62,NA-US-NY-PERKINSVILLE,f,,,,{241618}
14532,STANDARD,PHELPS,NY,PRIMARY,42.95,-77.06,NA-US-NY-PHELPS,f,2190,3841,72903602,{}
14542,PO BOX,ROSE,NY,PRIMARY,43.15,-76.9,NA-US-NY-ROSE,f,,,,{}
14548,STANDARD,SHORTSVILLE,NY,PRIMARY,42.95,-77.22,NA-US-NY-SHORTSVILLE,f,1925,3340,64636212,{}
14551,STANDARD,SODUS,NY,PRIMARY,43.23,-77.06,NA-US-NY-SODUS,f,2590,4479,74815389,{}
14556,PO BOX,SONYEA,NY,PRIMARY,42.68,-77.82,NA-US-NY-SONYEA,f,,,,{}
14558,PO BOX,SOUTH LIMA,NY,PRIMARY,42.81,-77.65,NA-US-NY-SOUTH LIMA,f,,,,{}
14559,STANDARD,SPENCERPORT,NY,PRIMARY,43.18,-77.8,NA-US-NY-SPENCERPORT,f,8942,15998,365362043,{}
14564,STANDARD,VICTOR,NY,PRIMARY,42.98,-77.41,NA-US-NY-VICTOR,f,6812,12648,408196078,{}
14571,STANDARD,WATERPORT,NY,PRIMARY,43.33,-78.24,NA-US-NY-WATERPORT,f,599,1035,17365410,{}
14609,STANDARD,ROCHESTER,NY,PRIMARY,43.16,-77.61,NA-US-NY-ROCHESTER,f,19910,31863,559808479,{}
14613,STANDARD,ROCHESTER,NY,PRIMARY,43.16,-77.61,NA-US-NY-ROCHESTER,f,5381,8911,121084937,{}
14616,STANDARD,ROCHESTER,NY,PRIMARY,43.16,-77.61,NA-US-NY-ROCHESTER,f,14962,24464,446717959,{}
14622,STANDARD,ROCHESTER,NY,PRIMARY,43.16,-77.61,NA-US-NY-ROCHESTER,f,6757,10834,223568459,{}
14627,PO BOX,ROCHESTER,NY,PRIMARY,43.16,-77.61,NA-US-NY-ROCHESTER,f,,,,{}
14639,UNIQUE,ROCHESTER,NY,PRIMARY,43.16,-77.61,NA-US-NY-ROCHESTER,f,,,,{}
14645,UNIQUE,ROCHESTER,NY,PRIMARY,43.15,-77.6,NA-US-NY-ROCHESTER,t,,,,{}
14646,UNIQUE,ROCHESTER,NY,PRIMARY,43.16,-77.61,NA-US-NY-ROCHESTER,f,,,,{}
14650,UNIQUE,ROCHESTER,NY,PRIMARY,43.16,-77.61,NA-US-NY-ROCHESTER,f,,,,{}
14714,STANDARD,BLACK CREEK,NY,PRIMARY,42.29,-78.24,NA-US-NY-BLACK CREEK,f,,,,{}
14719,STANDARD,CATTARAUGUS,NY,PRIMARY,42.32,-78.86,NA-US-NY-CATTARAUGUS,f,1446,2574,41585470,{}
14726,STANDARD,CONEWANGO VALLEY,NY,PRIMARY,42.26,-79.01,NA-US-NY-CONEWANGO VALLEY,f,396,731,9852566,{}
14735,STANDARD,FILLMORE,NY,PRIMARY,42.46,-78.11,NA-US-NY-FILLMORE,f,1034,1917,27267742,{}
14737,STANDARD,FRANKLINVILLE,NY,PRIMARY,42.33,-78.45,NA-US-NY-FRANKLINVILLE,f,1831,3248,50496288,{}
14741,STANDARD,GREAT VALLEY,NY,PRIMARY,42.21,-78.59,NA-US-NY-GREAT VALLEY,f,887,1573,25457334,{}
14721,STANDARD,CERES,NY,PRIMARY,42,-78.27,NA-US-NY-CERES,f,,,,{}
14744,STANDARD,HOUGHTON,NY,PRIMARY,42.42,-78.16,NA-US-NY-HOUGHTON,f,478,878,14813938,{}
14750,STANDARD,LAKEWOOD,NY,PRIMARY,42.1,-79.32,NA-US-NY-LAKEWOOD,f,2309,3950,83637569,{}
14758,PO BOX,NIOBE,NY,PRIMARY,42.01,-79.45,NA-US-NY-NIOBE,f,,,,{}
14772,STANDARD,RANDOLPH,NY,PRIMARY,42.16,-78.97,NA-US-NY-RANDOLPH,f,1660,2991,48687959,{}
14777,STANDARD,RUSHFORD,NY,PRIMARY,42.4,-78.23,NA-US-NY-RUSHFORD,f,323,571,7940862,{}
14782,STANDARD,SINCLAIRVILLE,NY,PRIMARY,42.26,-79.25,NA-US-NY-SINCLAIRVILLE,f,1045,1912,29553283,{}
14783,PO BOX,STEAMBURG,NY,PRIMARY,42.12,-78.89,NA-US-NY-STEAMBURG,f,,,,{}
14802,STANDARD,ALFRED,NY,PRIMARY,42.25,-77.78,NA-US-NY-ALFRED,f,425,655,13658262,{}
14803,STANDARD,ALFRED STATION,NY,PRIMARY,42.24,-77.81,NA-US-NY-ALFRED STATION,f,529,950,16669554,{}
14820,STANDARD,CAMERON MILLS,NY,PRIMARY,42.18,-77.36,NA-US-NY-CAMERON MILLS,f,294,543,9261359,{}
14826,STANDARD,COHOCTON,NY,PRIMARY,42.5,-77.5,NA-US-NY-COHOCTON,f,948,1711,30005570,{}
14831,UNIQUE,CORNING,NY,PRIMARY,42.14,-77.05,NA-US-NY-CORNING,f,,,,{}
14842,STANDARD,HIMROD,NY,PRIMARY,42.58,-76.95,NA-US-NY-HIMROD,f,344,634,8319253,{}
14846,STANDARD,HUNT,NY,PRIMARY,42.52,-77.98,NA-US-NY-HUNT,f,319,573,9130447,{}
14857,PO BOX,LAKEMONT,NY,PRIMARY,42.51,-76.92,NA-US-NY-LAKEMONT,f,,,,{}
14884,STANDARD,SWAIN,NY,PRIMARY,42.48,-77.88,NA-US-NY-SWAIN,f,,,,{}
14891,STANDARD,WATKINS GLEN,NY,PRIMARY,42.38,-76.87,NA-US-NY-WATKINS GLEN,f,2092,3508,64012667,{}
14892,STANDARD,WAVERLY,NY,PRIMARY,42.01,-76.52,NA-US-NY-WAVERLY,f,3736,6498,111973401,{}
14897,STANDARD,WHITESVILLE,NY,PRIMARY,42.03,-77.8,NA-US-NY-WHITESVILLE,f,399,739,12631676,{}
15003,STANDARD,AMBRIDGE,PA,PRIMARY,40.59,-80.22,NA-US-PA-AMBRIDGE,f,5845,9334,166009726,{243346}
15004,PO BOX,ATLASBURG,PA,PRIMARY,40.39,-80.44,NA-US-PA-ATLASBURG,f,,,,{}
15006,PO BOX,BAIRDFORD,PA,PRIMARY,40.54,-79.83,NA-US-PA-BAIRDFORD,f,,,,{}
15010,STANDARD,BEAVER FALLS,PA,PRIMARY,40.76,-80.32,NA-US-PA-BEAVER FALLS,f,13337,22923,456509722,{}
15017,STANDARD,BRIDGEVILLE,PA,PRIMARY,40.35,-80.1,NA-US-PA-BRIDGEVILLE,f,8129,13426,360232514,{}
15019,STANDARD,BULGER,PA,PRIMARY,40.42,-80.35,NA-US-PA-BULGER,f,830,1386,26038890,{}
15028,PO BOX,COULTERS,PA,PRIMARY,40.3,-79.79,NA-US-PA-COULTERS,f,,,,{}
15045,STANDARD,GLASSPORT,PA,PRIMARY,40.32,-79.88,NA-US-PA-GLASSPORT,f,2230,3570,58133709,{}
15046,STANDARD,CRESCENT,PA,PRIMARY,40.55,-80.23,NA-US-PA-CRESCENT,f,1340,2311,48581695,{}
15049,STANDARD,HARWICK,PA,PRIMARY,40.56,-79.8,NA-US-PA-HARWICK,f,599,911,15877185,{}
15055,STANDARD,LAWRENCE,PA,PRIMARY,40.31,-80.14,NA-US-PA-LAWRENCE,f,866,1317,28883868,{}
15067,STANDARD,NEW EAGLE,PA,PRIMARY,40.2,-79.95,NA-US-PA-NEW EAGLE,f,1164,1929,33026075,{}
15084,STANDARD,TARENTUM,PA,PRIMARY,40.6,-79.76,NA-US-PA-TARENTUM,f,4946,8210,154863822,{}
15088,PO BOX,WEST ELIZABETH,PA,PRIMARY,40.27,-79.89,NA-US-PA-WEST ELIZABETH,f,330,527,8264552,{}
15096,UNIQUE,WARRENDALE,PA,PRIMARY,40.64,-80.09,NA-US-PA-WARRENDALE,f,,,,{}
15106,STANDARD,CARNEGIE,PA,PRIMARY,40.4,-80.08,NA-US-PA-CARNEGIE,f,9915,15580,331848277,{}
15112,STANDARD,EAST PITTSBURGH,PA,PRIMARY,40.39,-79.83,NA-US-PA-EAST PITTSBURGH,f,1634,2523,41506939,{}
15122,STANDARD,WEST MIFFLIN,PA,PRIMARY,40.35,-79.9,NA-US-PA-WEST MIFFLIN,f,10637,17458,330884386,{}
15123,STANDARD,WEST MIFFLIN,PA,PRIMARY,40.35,-79.9,NA-US-PA-WEST MIFFLIN,f,,,,{}
15129,STANDARD,SOUTH PARK,PA,PRIMARY,40.29,-79.99,NA-US-PA-SOUTH PARK,f,5698,9928,248577001,{}
15131,STANDARD,MCKEESPORT,PA,PRIMARY,40.33,-79.83,NA-US-PA-MCKEESPORT,f,4566,7359,147982434,{}
15134,PO BOX,MCKEESPORT,PA,PRIMARY,40.33,-79.83,NA-US-PA-MCKEESPORT,f,,,,{}
15140,STANDARD,PITCAIRN,PA,PRIMARY,40.4,-79.77,NA-US-PA-PITCAIRN,f,1571,2420,37641641,{}
15146,STANDARD,MONROEVILLE,PA,PRIMARY,40.42,-79.76,NA-US-PA-MONROEVILLE,f,15256,25238,584154297,{}
15147,STANDARD,VERONA,PA,PRIMARY,40.5,-79.84,NA-US-PA-VERONA,f,9049,14492,264955711,{}
15205,STANDARD,PITTSBURGH,PA,PRIMARY,40.43,-79.97,NA-US-PA-PITTSBURGH,f,11785,18124,439445092,{}
15209,STANDARD,PITTSBURGH,PA,PRIMARY,40.43,-79.97,NA-US-PA-PITTSBURGH,f,6716,11063,244559083,{}
15215,STANDARD,PITTSBURGH,PA,PRIMARY,40.43,-79.97,NA-US-PA-PITTSBURGH,f,6476,10731,358015075,{}
15222,STANDARD,PITTSBURGH,PA,PRIMARY,40.43,-79.97,NA-US-PA-PITTSBURGH,f,2366,2953,148970937,{}
15223,STANDARD,PITTSBURGH,PA,PRIMARY,40.43,-79.97,NA-US-PA-PITTSBURGH,f,3940,6228,114859798,{}
15224,STANDARD,PITTSBURGH,PA,PRIMARY,40.43,-79.97,NA-US-PA-PITTSBURGH,f,5114,7053,129720383,{}
15226,STANDARD,PITTSBURGH,PA,PRIMARY,40.43,-79.97,NA-US-PA-PITTSBURGH,f,7444,11640,234252470,{}
15230,PO BOX,PITTSBURGH,PA,PRIMARY,40.43,-79.97,NA-US-PA-PITTSBURGH,f,266,321,5237990,{}
15231,PO BOX,PITTSBURGH,PA,PRIMARY,40.43,-79.97,NA-US-PA-PITTSBURGH,f,,,,{}
15234,STANDARD,PITTSBURGH,PA,PRIMARY,40.43,-79.97,NA-US-PA-PITTSBURGH,f,7792,12505,271505879,{}
15236,STANDARD,PITTSBURGH,PA,PRIMARY,40.43,-79.97,NA-US-PA-PITTSBURGH,f,16017,27107,612338255,{244882}
15238,STANDARD,PITTSBURGH,PA,PRIMARY,40.43,-79.97,NA-US-PA-PITTSBURGH,f,7201,12416,703048749,{}
15239,STANDARD,PITTSBURGH,PA,PRIMARY,40.43,-79.97,NA-US-PA-PITTSBURGH,f,10710,18952,448633204,{}
15255,UNIQUE,PITTSBURGH,PA,PRIMARY,40.43,-79.97,NA-US-PA-PITTSBURGH,f,,,,{}
15261,UNIQUE,PITTSBURGH,PA,PRIMARY,40.43,-79.97,NA-US-PA-PITTSBURGH,f,,,,{}
15266,UNIQUE,PITTSBURGH,PA,PRIMARY,40.44,-79.99,NA-US-PA-PITTSBURGH,t,,,,{}
15279,UNIQUE,PITTSBURGH,PA,PRIMARY,40.43,-79.97,NA-US-PA-PITTSBURGH,f,,,,{}
15285,UNIQUE,PITTSBURGH,PA,PRIMARY,40.44,-79.99,NA-US-PA-PITTSBURGH,t,,,,{}
